id,short_name,name,lat centre,lon centre,lwl_data,lwe_data,lswt_data,lic_data,lwlr_data
2,GLWD00000002,Superior,47.9625,-87.0431,True,False,True,True,True
3,GLWD00000003,Victoria,-0.8764,33.1431,True,False,True,True,True
4,GLWD00000004,Large Aral Sea,44.6486,59.8347,True,False,True,True,True
5,GLWD00000005,Huron,44.7208,-82.3458,True,False,True,True,True
6,GLWD00000006,Michigan,42.6042,-87.0153,True,False,True,True,True
7,GLWD00000007,Tanganyika,-6.8014,30.0375,True,False,True,True,True
8,GLWD00000008,Baikal,54.1736,108.9736,True,False,True,True,True
9,GLWD00000009,Great Bear,66.0125,-120.3764,True,False,True,True,True
10,GLWD00000010,Malawi,-11.6042,34.6375,True,False,True,True,True
11,GLWD00000011,Great Slave,61.3347,-114.7958,True,False,True,True,True
12,GLWD00000012,Erie,42.2514,-81.1292,True,False,True,True,True
13,GLWD00000013,Winnipeg,53.4153,-98.4236,True,False,True,True,True
14,GLWD00000014,Chad,13.1319,14.4653,True,True,True,True,True
15,GLWD00000015,Ontario,43.6653,-77.7625,True,True,True,True,True
16,GLWD00000016,Ladoga,60.7653,31.6486,True,False,True,True,True
17,GLWD00000017,Balkhash,46.2903,74.4764,True,False,True,True,True
18,GLWD00000018,Onegh,61.6625,35.5319,True,False,True,True,True
19,GLWD00000019,Itaparica,-9.9042,-42.1986,True,True,True,True,True
20,GLWD00000020,Titicaca,-15.7681,-69.4569,True,True,True,True,True
21,GLWD00000021,Nicaragua,11.3569,-85.2431,True,False,True,True,True
22,GLWD00000022,Turkana,3.7764,36.0486,True,True,True,True,True
23,GLWD00000023,Athabasca,59.3319,-109.4181,True,False,True,True,True
24,GLWD00000024,Volta,6.5597,0.0292,True,False,True,True,True
25,GLWD00000025,Issyk-kul,42.4236,77.3653,True,False,True,True,True
26,GLWD00000026,Great Salt,41.2847,-112.6875,True,False,True,True,True
27,GLWD00000027,Michikamau-Lobstick,54.0153,-63.9986,False,False,True,True,True
28,GLWD00000028,Reindeer,57.5542,-102.2014,True,False,True,True,True
29,GLWD00000029,Vanern,59.0514,13.5931,True,True,True,True,True
30,GLWD00000030,Albert,1.7764,31.0819,True,True,True,True,True
31,GLWD00000031,Winnipegosis,52.6986,-99.9014,True,False,True,True,True
32,GLWD00000032,Nettiling,66.6181,-70.9931,True,False,True,True,True
33,GLWD00000033,Kuybyshevskoye,54.5514,48.5931,True,False,True,True,True
34,GLWD00000034,Urmia,37.9181,45.2542,True,True,True,True,True
35,GLWD00000035,Kariba,-17.0153,27.8347,True,True,True,True,True
36,GLWD00000036,Mweru,-8.9931,28.7319,True,False,True,True,True
37,GLWD00000037,Manitoba,50.3958,-98.2681,True,False,True,True,True
38,GLWD00000038,Nipigon,49.7264,-88.6903,True,False,True,True,True
39,GLWD00000039,Bratskoye,55.6375,101.9486,True,True,True,True,True
40,GLWD00000040,Zaysan,47.9014,84.2597,True,False,True,True,True
41,GLWD00000041,Qinghai,37.0208,100.2014,True,False,True,True,True
42,GLWD00000042,Cabora  Bassa,-15.6181,32.3069,True,True,True,True,True
43,GLWD00000043,Taymyr,74.5625,100.9764,False,False,True,True,True
44,GLWD00000044,Lake of the Woods,49.0847,-94.9458,True,False,True,True,True
45,GLWD00000045,Khanka,45.0792,132.4514,True,True,True,True,True
46,GLWD00000046,Mirim,-32.6125,-52.8125,False,False,True,True,True
47,GLWD00000047,Rybinkskoye,58.4014,38.5208,True,False,True,True,True
48,GLWD00000048,Nasser,23.2069,32.7986,True,True,True,True,True
49,GLWD00000049,Dubawnt,63.1625,-101.4431,True,False,True,True,True
50,GLWD00000050,Peipus,58.8208,27.4208,True,False,True,True,True
51,GLWD00000051,Van,38.6292,42.7292,True,True,True,True,True
52,GLWD00000052,Tucurui,-4.1347,-49.6208,True,False,True,True,True
53,GLWD00000053,Uvs,50.3069,92.7181,True,True,True,True,True
54,GLWD00000054,Grande,53.8736,-76.7069,False,False,True,True,True
55,GLWD00000055,T'ana,12.0708,37.4014,True,True,True,True,True
56,GLWD00000056,Amadjuak,64.9486,-71.0431,True,False,True,True,True
57,GLWD00000057,Cedar,53.2181,-100.1875,True,False,True,True,True
58,GLWD00000058,Alakol,45.9764,81.8097,True,True,True,True,True
59,GLWD00000059,Hovs Gol,51.2181,100.5125,True,False,True,True,True
61,GLWD00000061,Volgogradskoye,50.3431,45.8569,False,False,True,True,True
62,GLWD00000062,Iliamna Lake,59.4653,-155.5903,True,False,True,True,True
63,GLWD00000063,Grande,53.8403,-75.3847,True,True,True,True,True
64,GLWD00000064,Boeng Tonle Chhma,13.0486,103.9264,True,False,True,True,True
65,GLWD00000065,Itaipu,-25.2042,-54.4486,False,False,True,True,True
66,GLWD00000066,Tai,31.2319,120.0764,True,False,True,True,True
67,GLWD00000067,Kivu,-1.7931,29.1542,True,True,True,True,True
68,GLWD00000068,Wollaston,58.2125,-103.4347,True,False,True,True,True
69,GLWD00000069,Edward,-0.3042,29.6181,True,True,True,True,True
71,GLWD00000071,Tsimlyanskoye,47.7153,42.3708,True,True,True,True,True
72,GLWD00000072,Southern Indian,57.3319,-98.3403,False,False,True,True,True
75,GLWD00000075,Hulun,48.8931,117.3458,True,False,True,True,True
76,GLWD00000076,Mistassini,51.0042,-73.6181,False,False,True,True,True
77,GLWD00000077,Buhayrat ath Tharthar,33.8931,43.3014,True,True,True,True,True
78,GLWD00000078,Poyang,29.1319,116.1708,True,False,True,True,True
79,GLWD00000079,Kakhovskoye,47.4958,34.0597,False,False,True,True,True
80,GLWD00000080,Vilyuyskoye,62.7097,111.2847,False,False,True,True,True
81,GLWD00000081,Bangweulu,-10.9792,29.9042,True,True,True,True,True
82,GLWD00000082,Manicouagan,51.2764,-68.2986,False,False,True,True,True
83,GLWD00000083,Nueltin,60.4097,-99.6069,True,False,True,True,True
84,GLWD00000084,Chiquita,-30.4931,-62.4819,True,True,True,True,True
85,GLWD00000085,Syvash,45.4208,35.1625,True,False,True,True,True
87,GLWD00000087,Kremenshugskoye,49.2347,32.7819,True,True,True,True,True
88,GLWD00000088,Zeyskoye,54.4347,127.7042,True,True,True,True,True
90,GLWD00000090,Mai-Ndombe,-1.6847,18.2764,True,True,True,True,True
91,GLWD00000091,Na-Mu,30.6958,90.4514,True,False,True,True,True
92,GLWD00000092,Chany,54.9514,77.9653,True,False,True,True,True
93,GLWD00000093,Krasnoyarskoye,54.2264,91.4625,True,False,True,True,True
94,GLWD00000094,Buenos Aires,-46.4819,-71.5153,True,False,True,True,True
95,GLWD00000095,Vattern,58.5458,14.7069,True,False,True,True,True
96,GLWD00000096,Serra da Mesa,-14.1097,-48.2903,False,False,True,True,True
97,GLWD00000097,Baker,64.2097,-95.3819,True,False,True,True,True
98,GLWD00000098,Argyle,-16.2931,128.8264,True,True,True,True,True
100,GLWD00000100,Martre,63.4569,-118.1903,True,False,True,True,True
101,GLWD00000101,None,25.1958,-97.5819,False,False,True,True,True
102,GLWD00000102,Ust-Ilimskoye,57.3236,102.3347,True,False,True,True,True
103,GLWD00000103,Williston,55.9847,-123.9181,True,False,True,True,True
104,GLWD00000104,Kamskoye,58.8625,56.2847,True,False,True,True,True
105,GLWD00000105,Siling,31.8014,89.0903,True,False,True,True,True
106,GLWD00000106,Brokopondo Reservoir,4.8625,-55.0625,False,False,True,True,True
107,GLWD00000107,Seul,50.3153,-92.5542,False,False,True,True,True
108,GLWD00000108,Kossour Reservoir,7.1625,-5.6181,True,False,True,True,True
109,GLWD00000109,Hungtze,33.2847,118.7236,True,True,True,True,True
110,GLWD00000110,Sakakawea-Audubon,47.8069,-102.3125,True,False,True,True,True
112,GLWD00000112,Khantayskoye,67.8264,87.5986,False,False,True,True,True
113,GLWD00000113,Saratov Reservoir,52.8486,48.4792,True,True,True,True,True
114,GLWD00000114,Okeechobee,26.9403,-80.7903,True,True,True,True,True
116,GLWD00000116,Kainji,10.4097,4.5653,True,False,True,True,True
117,GLWD00000117,Argentino,-50.2458,-72.5014,True,False,True,True,True
118,GLWD00000118,Gouin,48.5375,-74.5347,False,False,True,True,True
119,GLWD00000119,Mweru wa Ntipa,-8.6569,29.7236,True,False,True,True,True
120,GLWD00000120,Tengiz,50.3125,68.8597,True,True,True,True,True
121,GLWD00000121,Khyargas,49.2042,93.2208,True,False,True,True,True
122,GLWD00000122,Oahe,44.7375,-100.6375,True,True,True,True,True
124,GLWD00000124,Kasba,60.3208,-102.1208,True,False,True,True,True
125,GLWD00000125,Claire,58.5931,-112.0792,True,False,True,True,True
126,GLWD00000126,Yathkyed,62.7431,-98.1431,False,False,True,True,True
127,GLWD00000127,La Ronge,55.0181,-105.0931,False,False,True,True,True
128,GLWD00000128,Wiyâshâkimî,56.0681,-74.1069,False,False,True,True,True
129,GLWD00000129,Repressa de Jupia,-20.2236,-51.0486,True,False,True,True,True
130,GLWD00000130,Rainy Lake,48.5736,-92.8014,False,False,True,True,True
131,GLWD00000131,Qapshaghay Bogeni,43.8542,77.3542,True,False,True,True,True
132,GLWD00000132,Negro,-32.6875,-56.0181,False,False,True,True,True
133,GLWD00000133,Poopo,-18.9903,-66.9625,True,False,True,True,True
134,GLWD00000134,Xingu,-1.9347,-52.2431,False,False,True,True,True
135,GLWD00000135,Sevan,40.2958,45.3792,True,True,True,True,True
136,GLWD00000136,Vygozero,63.6542,34.6597,True,False,True,True,True
137,GLWD00000137,Cree,57.3431,-106.9625,False,False,True,True,True
139,GLWD00000139,Furnas,-20.7431,-45.7347,False,False,True,True,True
140,GLWD00000140,Limfjorden,56.9625,9.1069,True,False,True,True,True
141,GLWD00000141,Kaghasuk,60.7125,-163.6097,False,False,True,True,True
142,GLWD00000142,Khar Us,47.9486,92.1514,False,False,True,True,True
143,GLWD00000143,None,67.8042,-97.5264,False,False,True,True,True
144,GLWD00000144,Inari,69.0486,27.7681,True,False,True,True,True
145,GLWD00000145,Becharof,57.9736,-156.6208,False,False,True,True,True
146,GLWD00000146,Saint Clair,42.4125,-82.7181,False,False,True,True,True
147,GLWD00000147,Lesser Slave,55.4514,-115.0403,True,False,True,True,True
149,GLWD00000149,Eskimo,69.7569,-130.2069,False,False,True,True,True
150,GLWD00000150,Toba,2.7903,98.6458,False,False,True,True,True
151,GLWD00000151,Red Lake Reservoir,47.9681,-95.0875,False,False,True,True,True
152,GLWD00000152,Aberdeen,64.4875,-98.7292,False,False,True,True,True
153,GLWD00000153,Chapala,20.2486,-102.9903,True,True,True,True,True
154,GLWD00000154,Caroni,7.0847,-62.9125,True,True,True,True,True
155,GLWD00000155,Bienville,55.1431,-72.5931,True,False,True,True,True
156,GLWD00000156,Eyasi,-3.5736,35.1542,False,False,True,True,True
157,GLWD00000157,Paijanne,61.4958,25.3986,False,False,True,True,True
158,GLWD00000158,Saint-Jean,48.5597,-71.9597,True,True,True,True,True
159,GLWD00000159,Opinaca,52.3764,-76.6708,True,True,True,True,True
160,GLWD00000160,Beloye,60.1819,37.6375,True,False,True,True,True
161,GLWD00000161,Grande,-30.9375,-57.9097,False,False,True,True,True
162,GLWD00000162,Contwoyto,65.4431,-110.2958,False,False,True,True,True
163,GLWD00000163,Malaren,59.4931,16.7625,False,False,True,True,True
165,GLWD00000165,Champlain,44.4653,-73.3153,True,False,True,True,True
166,GLWD00000166,Abaya,6.4958,37.9014,False,False,True,True,True
167,GLWD00000167,San Martin,-49.1292,-72.3542,True,False,True,True,True
168,GLWD00000168,Caniapiscau,54.5014,-69.8097,True,False,True,True,True
169,GLWD00000169,Wholdaia,60.8069,-104.3125,False,False,True,True,True
170,GLWD00000170,Selawik,66.4764,-160.6569,False,False,True,True,True
171,GLWD00000171,Viedma,-49.6958,-72.2014,True,False,True,True,True
172,GLWD00000172,Gods,54.7514,-94.1708,True,False,True,True,True
173,GLWD00000173,Razazah,32.8208,43.5708,True,False,True,True,True
174,GLWD00000174,Island,53.7903,-94.5014,False,False,True,True,True
175,GLWD00000175,Thale Luang,7.6847,100.2319,False,False,True,True,True
176,GLWD00000176,Managua,12.3847,-86.3653,True,False,True,True,True
177,GLWD00000177,Imandra,67.5653,32.8792,False,False,True,True,True
178,GLWD00000178,Takiyuak,66.2375,-113.1514,False,False,True,True,True
179,GLWD00000179,Zhari Namco,30.9403,85.4903,True,True,True,True,True
181,GLWD00000181,Bosten,41.9958,86.9653,True,True,True,True,True
182,GLWD00000182,Buyo,6.2764,-7.1208,True,False,True,True,True
184,GLWD00000184,Lake of the Enemy,63.9569,-111.2792,False,False,True,True,True
186,GLWD00000186,Topozero,65.7708,31.7903,True,False,True,True,True
188,GLWD00000188,Tres Marias,-18.2458,-45.2625,True,True,True,True,True
189,GLWD00000189,Hottah,65.1208,-118.5375,True,False,True,True,True
190,GLWD00000190,Novosibirskoye,54.7347,82.8347,True,True,True,True,True
191,GLWD00000191,Bras d'Or,45.8542,-60.8181,False,False,True,True,True
192,GLWD00000192,Ilmen,58.2542,31.2514,True,True,True,True,True
193,GLWD00000193,Gorkovsky Reservoir,57.2153,43.0931,False,False,True,True,True
194,GLWD00000194,Salton,33.2458,-115.7236,True,False,True,True,True
195,GLWD00000195,Pielinen,63.2097,29.8764,False,False,True,True,True
197,GLWD00000197,Kara-Bogaz-Gol,41.3597,53.4681,True,True,True,True,True
198,GLWD00000198,Nipissing,46.2569,-79.5958,True,False,True,True,True
199,GLWD00000199,Iepe,-22.7208,-51.2153,False,False,True,True,True
200,GLWD00000200,Abitibi,48.6625,-79.8569,True,False,True,True,True
201,GLWD00000201,Fort Peck,47.9625,-106.4375,True,False,True,True,True
202,GLWD00000202,Oulu,64.2986,27.2153,True,False,True,True,True
203,GLWD00000203,Sao Simao Reservoir,-18.7958,-50.3681,False,False,True,True,True
204,GLWD00000204,Chilika,19.7736,85.4014,False,False,True,True,True
205,GLWD00000205,Bay,14.4181,121.1264,False,False,True,True,True
207,GLWD00000207,None,72.3236,144.9569,False,False,True,True,True
209,GLWD00000209,Llanquihue,-41.1236,-72.7819,True,False,True,True,True
210,GLWD00000210,Alexandrina,-35.4181,139.2264,False,False,True,True,True
211,GLWD00000211,Nonacho,61.6681,-109.5597,False,False,True,True,True
212,GLWD00000212,Teshekpuk,70.5819,-153.5875,False,False,True,True,True
215,GLWD00000215,Tangra,31.1875,86.7042,True,True,True,True,True
216,GLWD00000216,Itaparica,-8.8319,-38.4875,True,False,True,True,True
217,GLWD00000217,Grande,-20.3958,-48.9625,False,False,True,True,True
218,GLWD00000218,Khantayskoye,68.2792,89.9958,False,False,True,True,True
219,GLWD00000219,Colhue Huapi,-45.5792,-68.7069,True,False,True,True,True
220,GLWD00000220,Chocon,-39.5264,-69.0847,True,True,True,True,True
221,GLWD00000221,Hamun-E Saberi,31.5069,61.2875,False,False,True,True,True
222,GLWD00000222,Peter Pond,56.0208,-108.9458,False,False,True,True,True
223,GLWD00000223,Pipmuacan,49.5875,-70.4403,False,False,True,True,True
224,GLWD00000224,Minto,57.2514,-74.8542,False,False,True,True,True
225,GLWD00000225,South Moose,53.7986,-100.2569,False,False,True,True,True
226,GLWD00000226,Aylmer,64.1097,-108.5181,True,False,True,True,True
227,GLWD00000227,Garry (Lower and Upper),65.8847,-99.8542,True,False,True,True,True
228,GLWD00000228,Segozerskoye,63.2847,33.6403,True,False,True,True,True
229,GLWD00000229,Barun-Torey,50.0764,115.8014,True,False,True,True,True
231,GLWD00000231,Mangueira,-33.0792,-52.7347,False,False,True,True,True
232,GLWD00000232,None,65.1847,-112.3708,False,False,True,True,True
233,GLWD00000233,Chao,31.5097,117.5458,False,False,True,True,True
234,GLWD00000234,Angostura,16.0431,-92.3986,True,False,True,True,True
235,GLWD00000235,Tamiauha,21.6347,-97.5764,False,False,True,True,True
236,GLWD00000236,Simcoe,44.4625,-79.3569,False,False,True,True,True
237,GLWD00000237,Votkinskoye,56.8542,54.1403,False,False,True,True,True
238,GLWD00000238,das Brisas,-18.2986,-48.9097,False,False,True,True,True
239,GLWD00000239,Ulungar,47.2431,87.2097,True,True,True,True,True
240,GLWD00000240,Pyasino,70.0153,87.7792,False,False,True,True,True
241,GLWD00000241,Sarykamyshskoye,41.9542,57.3514,True,True,True,True,True
242,GLWD00000242,Kovdozero,66.6819,32.1708,False,False,True,True,True
243,GLWD00000243,Toledo Bend,31.2958,-93.6542,False,False,True,True,True
244,GLWD00000244,Dead Sea,31.4597,35.4819,False,False,True,True,True
245,GLWD00000245,Izabal,15.4903,-89.1847,True,False,True,True,True
246,GLWD00000246,Kamininak,62.1431,-95.1708,False,False,True,True,True
247,GLWD00000247,Sasykkol,46.5708,81.0208,True,True,True,True,True
248,GLWD00000248,Outardes Quatre,50.1847,-69.2208,False,False,True,True,True
249,GLWD00000249,Hirakud,21.5764,83.8153,False,False,True,True,True
250,GLWD00000250,Manych oudilo,46.3653,42.7042,False,False,True,True,True
251,GLWD00000251,Cross,54.6736,-97.8181,False,False,True,True,True
252,GLWD00000252,Gras,64.4653,-110.5097,False,False,True,True,True
253,GLWD00000253,Guillaume-Delisle,56.2153,-76.3264,False,False,True,True,True
254,GLWD00000254,Ennadai,60.8958,-101.1569,True,False,True,True,True
255,GLWD00000255,Tumba,-0.7069,18.0319,True,True,True,True,True
256,GLWD00000256,Chilwa,-15.3708,35.7347,False,False,True,True,True
257,GLWD00000257,Caratasca,15.2958,-83.7236,False,False,True,True,True
258,GLWD00000258,Verkhnetulomskoye,68.5847,31.1931,True,False,True,True,True
259,GLWD00000259,None,-20.6931,-51.0958,False,False,True,True,True
261,GLWD00000261,Yang-Cho-Yung,28.8375,90.6042,True,False,True,True,True
262,GLWD00000262,Kulundinskoye,53.0181,79.5347,True,False,True,True,True
264,GLWD00000264,Kamilukuak,62.3486,-101.5097,True,False,True,True,True
265,GLWD00000265,Baia do Caxiuana,-1.7181,-51.3097,False,False,True,True,True
266,GLWD00000266,Inhernillo,18.6069,-101.7319,False,False,True,True,True
267,GLWD00000267,Beysehir,37.7069,31.5486,True,True,True,True,True
268,GLWD00000268,Biwa,35.3264,136.1681,True,False,True,True,True
269,GLWD00000269,Tulemalu,62.8931,-99.4764,True,False,True,True,True
270,GLWD00000270,Evans,50.8681,-77.0097,False,False,True,True,True
271,GLWD00000271,Seletyteniz,53.2931,73.2569,False,False,True,True,True
273,GLWD00000273,Pyaozero,66.1042,31.0375,True,False,True,True,True
274,GLWD00000274,Roseires Reservoir,11.6292,34.3764,True,True,True,True,True
275,GLWD00000275,Clinton-Colden,63.9542,-107.4653,False,False,True,True,True
276,GLWD00000276,Lake Powell,37.0625,-111.2958,True,False,True,True,True
277,GLWD00000277,Coari,-4.0931,-63.3597,False,False,True,True,True
278,GLWD00000278,Mead,36.1264,-114.4819,True,False,True,True,True
279,GLWD00000279,Assad,35.9236,38.2931,True,False,True,True,True
280,GLWD00000280,Big Trout,53.7181,-89.9819,True,False,True,True,True
281,GLWD00000281,Dore,54.7764,-107.2764,True,False,True,True,True
282,GLWD00000282,Sakami,53.4014,-76.5958,False,False,True,True,True
283,GLWD00000283,Trombetas-lakes,-1.7625,-55.8986,False,False,True,True,True
285,GLWD00000285,St. Joseph,51.0903,-90.5986,False,False,True,True,True
286,GLWD00000286,Murray,-7.1431,141.5042,False,False,True,True,True
287,GLWD00000287,Gaoyou,32.8458,119.3458,False,False,True,True,True
288,GLWD00000288,Highrock,55.8986,-100.4208,False,False,True,True,True
289,GLWD00000289,Srisailam Reservoir,15.9792,78.3736,True,False,True,True,True
290,GLWD00000290,Ossokamanuan,53.6653,-65.2597,False,False,True,True,True
291,GLWD00000291,Buir,47.8181,117.7125,False,False,True,True,True
292,GLWD00000292,Selwyn,60.0514,-104.3681,False,False,True,True,True
293,GLWD00000293,Indian-river,28.7208,-80.7986,False,False,True,True,True
294,GLWD00000294,Har,48.1292,93.2597,True,False,True,True,True
295,GLWD00000295,Taupo,-38.7958,175.9292,False,False,True,True,True
296,GLWD00000296,Chardarinskoye,41.1319,68.1903,True,False,True,True,True
297,GLWD00000297,Ebi,44.8653,83.0125,False,False,True,True,True
298,GLWD00000298,Kentucky,36.4208,-88.0625,False,False,True,True,True
299,GLWD00000299,Buffalo,60.2264,-115.3292,True,False,True,True,True
300,GLWD00000300,Ngoring,34.8931,97.7069,True,True,True,True,True
301,GLWD00000301,Sipiwesk,54.9931,-97.7958,False,False,True,True,True
302,GLWD00000302,Hala,38.3014,97.5875,True,False,True,True,True
303,GLWD00000303,Moose,54.1569,-100.1431,False,False,True,True,True
304,GLWD00000304,Fagnano,-54.5486,-67.7375,False,False,True,True,True
305,GLWD00000305,Ebrie Lagoon,5.2903,-4.2875,False,False,True,True,True
306,GLWD00000306,Lagdo,8.9319,13.8597,True,True,True,True,True
308,GLWD00000308,Velasco Ibarra,-0.8875,-79.6958,False,False,True,True,True
309,GLWD00000309,Bonneville Salt Flat,41.0236,-113.5208,False,False,True,True,True
310,GLWD00000310,Balaton,46.9792,18.0736,False,False,True,True,True
311,GLWD00000311,Atlin,59.3625,-133.6875,True,False,True,True,True
312,GLWD00000312,Ayakkum,37.5486,89.4292,True,True,True,True,True
313,GLWD00000313,Scott,60.1375,-105.8931,False,False,True,True,True
314,GLWD00000314,Upemba,-8.6181,26.4125,False,False,True,True,True
315,GLWD00000315,Ferguson,69.3875,-104.8403,False,False,True,True,True
316,GLWD00000316,Tathlina,60.5542,-117.4931,False,False,True,True,True
317,GLWD00000317,Kuskokwim-River,60.0375,-162.3625,False,False,True,True,True
318,GLWD00000318,Keban Baraji,38.6569,39.5069,True,False,True,True,True
319,GLWD00000319,South Henik,61.5347,-97.4069,False,False,True,True,True
320,GLWD00000320,Kaminuriak,62.8069,-95.7708,False,False,True,True,True
321,GLWD00000321,Rogoaguado,-12.7958,-65.7569,False,False,True,True,True
322,GLWD00000322,Natron,-2.4153,36.0014,False,False,True,True,True
323,GLWD00000323,Churchill,56.0625,-108.2986,False,False,True,True,True
324,GLWD00000324,Angikuni,62.3903,-99.7681,False,False,True,True,True
326,GLWD00000326,Deschambault,54.6569,-103.5903,True,False,True,True,True
327,GLWD00000327,Geneva,46.4569,6.5847,True,False,True,True,True
328,GLWD00000328,Mingechaurskoye,40.9653,46.6569,True,True,True,True,True
329,GLWD00000329,Salines Grandes,-29.9681,-64.7181,False,False,True,True,True
330,GLWD00000330,Sinakharin,14.5847,99.0514,False,False,True,True,True
331,GLWD00000331,Labaz,72.2875,99.7069,True,False,True,True,True
332,GLWD00000332,Towuti,-2.7097,121.4958,True,False,True,True,True
333,GLWD00000333,Black,59.2208,-105.2764,False,False,True,True,True
334,GLWD00000334,Artillery,63.2403,-107.7486,False,False,True,True,True
335,GLWD00000335,La Grande 4,53.8986,-73.2681,False,False,True,True,True
336,GLWD00000336,Gyaring,34.9181,97.2792,False,False,True,True,True
337,GLWD00000337,Stephens,56.3931,-94.8736,False,False,True,True,True
338,GLWD00000338,Nerpich'ye,56.4236,162.7264,False,False,True,True,True
339,GLWD00000339,Hazen,81.7569,-71.5903,False,False,True,True,True
340,GLWD00000340,Lake Winnebago,44.0208,-88.4181,False,False,True,True,True
341,GLWD00000341,Emborcacao,-18.4431,-47.8458,True,True,True,True,True
342,GLWD00000342,Itarare,-23.3542,-49.6347,False,False,True,True,True
343,GLWD00000343,Nahuel Huapi,-41.0986,-71.3125,True,False,True,True,True
344,GLWD00000344,None,64.4681,174.3792,False,False,True,True,True
345,GLWD00000345,Ashuanipi,52.5819,-66.1208,False,False,True,True,True
346,GLWD00000346,Keitele,62.8764,25.9875,False,False,True,True,True
347,GLWD00000347,Gandhisagar,24.5292,75.5847,False,False,True,True,True
348,GLWD00000348,Bankim,6.0542,11.3097,True,False,True,True,True
349,GLWD00000349,Perlas,12.5014,-83.6931,False,False,True,True,True
350,GLWD00000350,Malheur,43.3292,-118.7903,False,False,True,True,True
351,GLWD00000351,Dauphin,51.1903,-99.7125,True,False,True,True,True
352,GLWD00000352,Bodensee,47.5431,9.5097,True,False,True,True,True
353,GLWD00000353,Payne,59.4819,-74.3569,False,False,True,True,True
354,GLWD00000354,Ngangla Ringco,31.5403,82.9403,True,False,True,True,True
356,GLWD00000356,Sandy,53.0069,-93.0431,True,False,True,True,True
357,GLWD00000357,Lacs-Des-Loups-Marins,56.5042,-73.5014,False,False,True,True,True
358,GLWD00000358,Razelm,44.9069,28.9486,True,False,True,True,True
359,GLWD00000359,Balbina,-2.6208,-58.0014,False,False,True,True,True
360,GLWD00000360,Jurumirim-Reservoir,-23.2542,-49.0625,True,True,True,True,True
361,GLWD00000361,Dnieprodzerzhinsk,48.8403,34.0236,False,False,True,True,True
362,GLWD00000362,Sam-Rayburn,31.1403,-94.2153,False,False,True,True,True
363,GLWD00000363,Granville,56.2625,-100.6153,False,False,True,True,True
364,GLWD00000364,Kureisk,67.0208,88.6931,False,False,True,True,True
365,GLWD00000365,Snowbird,60.6681,-102.9736,False,False,True,True,True
366,GLWD00000366,Mille Lacs,46.2681,-93.6625,True,False,True,True,True
367,GLWD00000367,Trout,60.5097,-121.2764,False,False,True,True,True
368,GLWD00000368,Manquane,50.7792,-70.9847,False,False,True,True,True
369,GLWD00000369,Nasijarvi,61.5792,23.7403,False,False,True,True,True
370,GLWD00000370,Hugh-Keenleyside(Arrow),50.6347,-117.8958,False,False,True,True,True
371,GLWD00000371,Tehek,64.9458,-95.5847,False,False,True,True,True
372,GLWD00000372,Barkal,22.5958,92.2042,True,True,True,True,True
373,GLWD00000373,Tebesjuak,63.7458,-98.8681,False,False,True,True,True
374,GLWD00000374,Ootsa,53.7847,-126.1375,False,False,True,True,True
375,GLWD00000375,Flathead-Lake,47.8653,-114.1181,True,False,True,True,True
376,GLWD00000376,Lokka-Reservoir,67.9431,27.5708,False,False,True,True,True
377,GLWD00000377,Naknek,58.6653,-156.2597,False,False,True,True,True
378,GLWD00000378,Sevier,38.9792,-113.1486,False,False,True,True,True
379,GLWD00000379,Cerros-Colorados-Complex,-38.5375,-68.8208,True,False,True,True,True
380,GLWD00000380,Tahoe,39.1181,-120.0542,False,False,True,True,True
382,GLWD00000382,Qyaring-Lake,31.0681,88.4319,True,False,True,True,True
383,GLWD00000383,Taro-Lake,31.1431,84.0181,True,False,True,True,True
384,GLWD00000384,Babine,54.7819,-126.0319,False,False,True,True,True
385,GLWD00000385,Mar Muerto,16.0458,-93.9625,False,False,True,True,True
386,GLWD00000386,Manantali,13.0403,-10.3514,False,False,True,True,True
387,GLWD00000387,Hjälmaren,59.2319,15.8681,True,False,True,True,True
388,GLWD00000388,Nkomi-Lagoon,-1.6181,9.3681,False,False,True,True,True
389,GLWD00000389,Hall,68.6458,-82.3514,True,False,True,True,True
390,GLWD00000390,Egirdir,37.9931,30.8875,True,False,True,True,True
391,GLWD00000391,Ile-A-La-Crosse,55.5542,-107.7486,False,False,True,True,True
392,GLWD00000392,Cabonga,47.3236,-76.5153,True,False,True,True,True
393,GLWD00000393,Storsjön,63.2236,14.2764,False,False,True,True,True
394,GLWD00000394,Dozois,47.3819,-77.1931,False,False,True,True,True
395,GLWD00000395,Princess-Mary,63.9542,-97.5319,False,False,True,True,True
396,GLWD00000396,Mcalpine-Lane,66.6569,-102.8819,False,False,True,True,True
397,GLWD00000397,Manyara,-3.6208,35.8097,False,False,True,True,True
398,GLWD00000398,Woods,-17.8014,133.5042,False,False,True,True,True
399,GLWD00000399,Grand,49.1375,-57.2208,False,False,True,True,True
400,GLWD00000400,Bois,66.8208,-125.2514,False,False,True,True,True
401,GLWD00000401,Bayano,9.1153,-78.7792,True,True,True,True,True
402,GLWD00000402,Diefenbaker,50.9903,-106.4681,False,False,True,True,True
403,GLWD00000403,Markakol,48.7403,85.7569,False,False,True,True,True
404,GLWD00000404,Churchill,56.4542,-108.4875,False,False,True,True,True
405,GLWD00000405,Montreal,54.3569,-105.6431,False,False,True,True,True
406,GLWD00000406,Tagish,60.1736,-134.3153,False,False,True,True,True
407,GLWD00000407,Sai li-mu,44.5986,81.1653,False,False,True,True,True
408,GLWD00000408,Hammar,30.7069,47.5375,False,False,True,True,True
409,GLWD00000409,Primrose,54.9236,-109.7125,False,False,True,True,True
411,GLWD00000411,Pyramid,40.1069,-119.5986,False,False,True,True,True
412,GLWD00000412,Franklin,66.9542,-95.3125,False,False,True,True,True
413,GLWD00000413,Mallery,63.9625,-98.4458,False,False,True,True,True
414,GLWD00000414,Cienaga-Grande-De-Santa-Marta,10.8875,-74.4042,False,False,True,True,True
415,GLWD00000415,Nam-Ngum,18.5681,102.6681,True,False,True,True,True
416,GLWD00000416,Ranco-Lake,-40.2319,-72.4681,True,False,True,True,True
417,GLWD00000417,Bluenose,68.3708,-119.7042,True,False,True,True,True
418,GLWD00000418,Aby,5.3097,-3.2153,False,False,True,True,True
419,GLWD00000419,Atikonak,52.7097,-64.6125,False,False,True,True,True
420,GLWD00000420,Mills,61.4847,-118.2625,True,False,True,True,True
421,GLWD00000421,Joseph,52.8292,-65.1792,False,False,True,True,True
422,GLWD00000422,Onkivesi,62.8431,27.8181,False,False,True,True,True
423,GLWD00000423,St. Peter,46.2014,-72.8236,False,False,True,True,True
424,GLWD00000424,Erichsen,70.6681,-80.6792,True,False,True,True,True
425,GLWD00000425,Ubinskoye,55.4653,80.0653,False,False,True,True,True
426,GLWD00000426,Colville,67.1819,-125.9847,True,False,True,True,True
427,GLWD00000427,Vozhe,60.7181,38.9097,False,False,True,True,True
429,GLWD00000429,Tasik Kenyir,5.0125,102.6236,False,False,True,True,True
430,GLWD00000430,Faber,63.8986,-117.3514,True,False,True,True,True
431,GLWD00000431,Laguna-Neskynpil'Gyn,66.9625,-172.9181,False,False,True,True,True
432,GLWD00000432,Albaniel,50.9042,-73.3097,False,False,True,True,True
433,GLWD00000433,Keta,68.7625,90.0264,False,False,True,True,True
434,GLWD00000434,Kubenskoye,59.6181,39.4958,True,False,True,True,True
435,GLWD00000435,Pekul'Neyskoye,62.6347,177.1958,False,False,True,True,True
436,GLWD00000436,Kyivs'Ke-Reservoir,50.7847,30.4597,False,False,True,True,True
437,GLWD00000437,Mica,52.1347,-118.4347,False,False,True,True,True
438,GLWD00000438,Schultz,64.7708,-97.4542,False,False,True,True,True
439,GLWD00000439,Mapam-Yumco,30.6958,81.4708,True,False,True,True,True
440,GLWD00000440,Rio-Andira,-2.8375,-57.0014,False,False,True,True,True
441,GLWD00000441,Eufaula Lake,35.3125,-95.5597,False,False,True,True,True
442,GLWD00000442,Govind Ballabah Pant,24.1319,82.8375,False,False,True,True,True
443,GLWD00000443,Cardiel,-48.9264,-71.2125,False,False,True,True,True
444,GLWD00000444,Ang-tzu,31.0681,87.1764,True,True,True,True,True
445,GLWD00000445,Ziway,8.0069,38.8181,True,False,True,True,True
446,GLWD00000446,Rio-Maues-Acu-And-Rio-Marau-And-Rio-Parauari,-3.4292,-57.7181,False,False,True,True,True
447,GLWD00000447,Kluane,61.0903,-138.4736,False,False,True,True,True
448,GLWD00000448,Musters,-45.4153,-69.1819,False,False,True,True,True
449,GLWD00000449,Wharton,64.0931,-99.8625,False,False,True,True,True
450,GLWD00000450,Leech,47.1458,-94.3875,False,False,True,True,True
451,GLWD00000451,Mirond-And-Pelican-And-Jan-Lakes,55.1514,-102.9708,False,False,True,True,True
452,GLWD00000452,Miguel Aleman,18.2458,-96.5403,False,False,True,True,True
454,GLWD00000454,Molson,54.2181,-96.7597,True,False,True,True,True
455,GLWD00000455,White-Nile-Reservoir,15.1681,32.4486,False,False,True,True,True
456,GLWD00000456,Wulanwula,34.8653,90.3569,True,False,True,True,True
457,GLWD00000457,Panama,9.1181,-79.9458,False,False,True,True,True
458,GLWD00000458,Bistcho,59.7403,-118.7319,False,False,True,True,True
459,GLWD00000459,None,67.8069,-175.9625,False,False,True,True,True
460,GLWD00000460,Hendrik Verwoerd,-30.6903,25.6875,True,False,True,True,True
461,GLWD00000461,Kayrakkumskoye,40.3153,70.1764,True,True,True,True,True
462,GLWD00000462,Itezhi-Tezhi-Dam,-15.7931,25.9431,False,False,True,True,True
463,GLWD00000463,Pulicat,13.5431,80.2069,False,False,True,True,True
464,GLWD00000464,Goose,42.0097,-120.4097,False,False,True,True,True
465,GLWD00000465,Keller,63.9236,-121.5597,False,False,True,True,True
466,GLWD00000466,Xinanjiang,29.5569,118.9208,False,False,True,True,True
467,GLWD00000467,Couture,60.1347,-75.3153,False,False,True,True,True
468,GLWD00000468,Kootenay,49.3958,-116.7764,False,False,True,True,True
469,GLWD00000469,Netsilik,69.3653,-93.0403,False,False,True,True,True
470,GLWD00000470,Karakul,39.0431,73.3486,False,False,True,True,True
471,GLWD00000471,Kanivs'Ke,49.9097,31.4875,False,False,True,True,True
472,GLWD00000472,Sredneye Kuyto,65.1347,31.4347,True,False,True,True,True
473,GLWD00000473,Shishmaref-Inlet,66.1736,-165.9792,False,False,True,True,True
474,GLWD00000474,Pinehouse,55.4125,-106.6264,False,False,True,True,True
475,GLWD00000475,Tiga,11.4153,8.4069,False,False,True,True,True
477,GLWD00000477,Malpaso,17.1847,-93.7431,True,False,True,True,True
478,GLWD00000478,Ndogo-Lagoon,-2.5292,9.8958,False,False,True,True,True
480,GLWD00000480,Chlew-Larn,9.0431,98.6597,False,False,True,True,True
481,GLWD00000481,Neagh,54.5931,-6.4153,False,False,True,True,True
482,GLWD00000482,Karsakuwigamak,56.2764,-99.5625,False,False,True,True,True
483,GLWD00000483,Chukchagirskoye,52.0069,136.6153,True,False,True,True,True
484,GLWD00000484,Habbaniyah,34.2486,42.3375,True,False,True,True,True
485,GLWD00000485,Lagos,6.5181,3.4458,False,False,True,True,True
486,GLWD00000486,Trout,51.2014,-93.3208,False,False,True,True,True
487,GLWD00000487,Danau Poso,-1.8819,120.5931,False,False,True,True,True
488,GLWD00000488,Scutari,42.1931,19.2931,False,False,True,True,True
489,GLWD00000489,Dorsoidong,33.4264,89.8931,True,False,True,True,True
490,GLWD00000490,Teslin,59.8736,-132.3236,False,False,True,True,True
491,GLWD00000491,Aubry,67.3014,-126.3986,True,False,True,True,True
492,GLWD00000492,Manukau-Harbour,-37.0542,174.7292,False,False,True,True,True
493,GLWD00000493,Matagami,49.8986,-77.6903,False,False,True,True,True
494,GLWD00000494,Agua-Vermelha,-19.8486,-50.1014,False,False,True,True,True
495,GLWD00000495,Portnyagino,74.1403,107.1458,False,False,True,True,True
496,GLWD00000496,Volta-Grande,-20.1153,-48.1514,False,False,True,True,True
498,GLWD00000498,Nagarjuna,16.5764,79.2819,False,False,True,True,True
499,GLWD00000499,Pool-Malebo,-4.3097,15.4653,False,False,True,True,True
500,GLWD00000500,Udyl',52.1903,140.0292,True,False,True,True,True
501,GLWD00000501,Stuart-Lake,54.5181,-124.5069,False,False,True,True,True
502,GLWD00000502,Bolon',49.8097,136.3097,True,False,True,True,True
503,GLWD00000503,Nejanilini,59.6264,-97.6653,False,False,True,True,True
505,GLWD00000505,Garda,45.5319,10.6542,True,False,True,True,True
506,GLWD00000506,Jebba,9.2458,4.7458,False,False,True,True,True
507,GLWD00000507,St-John-River,30.1125,-81.6653,False,False,True,True,True
508,GLWD00000508,Cold-Lake,54.5542,-110.0958,False,False,True,True,True
509,GLWD00000509,Dniester-Estuary,46.3347,30.1708,False,False,True,True,True
510,GLWD00000510,Grajau,-6.7486,-43.5986,False,False,True,True,True
511,GLWD00000511,Aqqikkol,37.0931,88.4014,True,False,True,True,True
512,GLWD00000512,White-Fish,62.7542,-106.7792,False,False,True,True,True
513,GLWD00000513,Canacari,-2.9181,-58.2069,False,False,True,True,True
514,GLWD00000514,Tazin,59.8153,-109.2125,False,False,True,True,True
515,GLWD00000515,Valencia,10.1736,-67.7931,True,False,True,True,True
516,GLWD00000516,North-Caribou,52.7181,-90.5569,False,False,True,True,True
517,GLWD00000517,Pletipi,51.7486,-70.0736,False,False,True,True,True
518,GLWD00000518,Mjøsa,60.6819,11.0431,False,False,True,True,True
519,GLWD00000519,Yamba,64.9069,-111.5597,False,False,True,True,True
520,GLWD00000520,Chibzhang-Lake,33.4819,90.3625,True,False,True,True,True
521,GLWD00000521,Stanwell-Fletcher,72.7264,-94.7681,False,False,True,True,True
522,GLWD00000522,Vodlozero,62.3875,36.8542,True,False,True,True,True
523,GLWD00000523,Utah,40.2042,-111.8014,False,False,True,True,True
524,GLWD00000524,Lanao,7.8486,124.2486,True,False,True,True,True
526,GLWD00000526,Ohrid,41.0264,20.7208,False,False,True,True,True
527,GLWD00000527,Abhe Bid,11.1708,41.7819,False,False,True,True,True
528,GLWD00000528,Tungabhadra,15.2403,76.2986,False,False,True,True,True
529,GLWD00000529,Oxford,54.9319,-95.3819,False,False,True,True,True
530,GLWD00000530,Puulavesi,61.8375,26.6792,False,False,True,True,True
531,GLWD00000531,Liangzi,30.2458,114.5181,False,False,True,True,True
532,GLWD00000532,Te Anau,-45.2125,167.7542,False,False,True,True,True
533,GLWD00000533,Lacha,61.2458,38.7569,True,False,True,True,True
534,GLWD00000534,Lake Livingston,30.7375,-95.1458,False,False,True,True,True
535,GLWD00000535,Pabellones,24.4319,-107.5569,False,False,True,True,True
536,GLWD00000536,Bangong,33.5181,79.8042,False,False,True,True,True
537,GLWD00000537,Ist'Ifanos,4.6958,36.9319,False,False,True,True,True
538,GLWD00000538,Saint-Martin,51.6764,-98.4819,False,False,True,True,True
539,GLWD00000539,Longgan,29.9375,116.1986,False,False,True,True,True
540,GLWD00000540,Maunoir,67.4819,-125.0125,True,False,True,True,True
541,GLWD00000541,Bamendjin,5.8153,10.6153,False,False,True,True,True
542,GLWD00000542,Karakaya,38.5069,38.4181,True,False,True,True,True
543,GLWD00000543,Urru,31.7181,87.9597,True,False,True,True,True
544,GLWD00000544,Nichicun,53.1681,-70.9431,False,False,True,True,True
545,GLWD00000545,Cormorant,54.1681,-100.7514,False,False,True,True,True
546,GLWD00000546,Pend-Oreille,48.1681,-116.3292,False,False,True,True,True
547,GLWD00000547,None,9.5125,80.3236,False,False,True,True,True
548,GLWD00000548,Umbozero,67.6486,34.4347,True,False,True,True,True
549,GLWD00000549,Dorgon,47.6458,93.4903,True,False,True,True,True
550,GLWD00000550,Kushmurun,52.7014,64.8458,False,False,True,True,True
551,GLWD00000551,Laguna-Tenkergynpil'Gyn,68.5847,-178.5125,False,False,True,True,True
552,GLWD00000552,Ak?ehir,38.5069,31.4181,False,False,True,True,True
553,GLWD00000553,Jupia,-20.6653,-51.6042,False,False,True,True,True
554,GLWD00000554,Clark,60.3153,-154.0903,False,False,True,True,True
555,GLWD00000555,Simard,47.6375,-78.7069,False,False,True,True,True
556,GLWD00000556,Marion,33.4681,-80.2125,False,False,True,True,True
557,GLWD00000557,Lynx,62.5069,-106.2819,False,False,True,True,True
558,GLWD00000558,Old-Wives,50.0958,-105.9569,True,False,True,True,True
559,GLWD00000559,Upper Klamath,42.4569,-122.0069,False,False,True,True,True
560,GLWD00000560,Biarini,-3.5181,-63.2736,False,False,True,True,True
561,GLWD00000561,Lama,69.3708,89.3375,False,False,True,True,True
562,GLWD00000562,Vaaldam,-27.0236,28.3236,False,False,True,True,True
563,GLWD00000563,Vembanad,9.5986,76.3931,False,False,True,True,True
564,GLWD00000564,Sudoche-Ko'L,43.4875,58.3681,False,False,True,True,True
565,GLWD00000565,Okanagan,49.8208,-119.5431,True,False,True,True,True
566,GLWD00000566,Amisk,54.5236,-102.2542,False,False,True,True,True
567,GLWD00000567,Falcon,26.6542,-99.2042,False,False,True,True,True
568,GLWD00000568,Rennie,61.4903,-105.5292,False,False,True,True,True
569,GLWD00000569,Kakisa,60.8986,-117.5208,False,False,True,True,True
570,GLWD00000570,Goeland,49.8347,-76.8514,False,False,True,True,True
571,GLWD00000571,Francis Case,44.2014,-99.6764,False,False,True,True,True
572,GLWD00000572,Yellowstone,44.4764,-110.3486,True,False,True,True,True
573,GLWD00000573,Meelpaeg,48.2486,-56.6069,False,False,True,True,True
574,GLWD00000574,M'Bakaou,6.3819,12.8042,False,False,True,True,True
575,GLWD00000575,Lady Melville,69.1819,-92.2903,True,False,True,True,True
576,GLWD00000576,Mosul,36.6597,42.9097,True,True,True,True,True
579,GLWD00000579,Ch'Amo,5.8458,37.5736,False,False,True,True,True
581,GLWD00000581,Split,56.2236,-96.1486,False,False,True,True,True
586,GLWD00000586,Malombe,-14.6347,35.2542,False,False,True,True,True
588,GLWD00000588,Cochrane,-47.3347,-71.9431,True,False,True,True,True
590,GLWD00000590,Cuitzeo,19.9319,-101.1931,False,False,True,True,True
592,GLWD00000592,Lumajangdong,34.0319,81.6458,True,True,True,True,True
594,GLWD00000594,Torneträsk,68.4125,18.7847,False,False,True,True,True
596,GLWD00000596,Han Shui,32.7292,111.5708,False,False,True,True,True
601,GLWD00000601,Krasnodarskoye,44.9625,39.1986,False,False,True,True,True
603,GLWD00000603,Ubol Ratana,16.7569,102.5792,False,False,True,True,True
604,GLWD00000604,Shala,7.4625,38.5458,True,False,True,True,True
608,GLWD00000608,Orel',53.4597,139.7181,False,False,True,True,True
609,GLWD00000609,Hoh Xil,35.5931,91.0736,True,False,True,True,True
612,GLWD00000612,Bolshiye-Kizi-Ozero,51.6542,140.2569,False,False,True,True,True
613,GLWD00000613,Tshangalele,-10.9375,27.0514,False,False,True,True,True
616,GLWD00000616,Chomen,9.5319,37.2236,False,False,True,True,True
618,GLWD00000618,St. Lucia,-27.9903,32.4764,False,False,True,True,True
620,GLWD00000620,Dongting-Lake,29.2292,112.8569,True,False,True,True,True
622,GLWD00000622,Maharana-Pratap-Reservoir,31.9847,76.0542,True,False,True,True,True
623,GLWD00000623,Daguan,29.9931,116.4569,False,False,True,True,True
624,GLWD00000624,Swan,52.4125,-100.6569,True,False,True,True,True
627,GLWD00000627,Dian Chi,24.8681,102.7181,False,False,True,True,True
629,GLWD00000629,Dabsan,37.0458,95.0514,False,False,True,True,True
630,GLWD00000630,Achit,49.4875,90.5236,True,False,True,True,True
632,GLWD00000632,Tustumena,60.2153,-150.9125,True,False,True,True,True
633,GLWD00000633,Timiskaming,47.5375,-79.5458,False,False,True,True,True
634,GLWD00000634,Iznik,40.4375,29.5125,True,False,True,True,True
635,GLWD00000635,Belot,66.9458,-126.2931,True,False,True,True,True
637,GLWD00000637,Hondo,-27.5431,-64.9931,False,False,True,True,True
639,GLWD00000639,Xijir Ulan,35.2069,90.3125,False,False,True,True,True
645,GLWD00000645,Boon Tsagaan,45.5903,99.1597,False,False,True,True,True
646,GLWD00000646,Clearwater,54.0569,-101.0653,False,False,True,True,True
648,GLWD00000648,Rogaguado-Lake,-13.0069,-65.9458,False,False,True,True,True
649,GLWD00000649,Puma-Yumco,28.5681,90.4264,False,False,True,True,True
654,GLWD00000654,Siljan,60.8653,14.7597,False,False,True,True,True
657,GLWD00000657,Höytiäinen,62.7347,29.7181,False,False,True,True,True
667,GLWD00000667,Sitidgi,68.5486,-132.6903,False,False,True,True,True
669,GLWD00000669,Utikuma,55.8542,-115.4236,False,False,True,True,True
672,GLWD00000672,Smoothstone,54.6431,-106.8625,False,False,True,True,True
674,GLWD00000674,Kisale,-8.2486,26.5125,True,False,True,True,True
676,GLWD00000676,La-ang,30.6597,81.2458,True,False,True,True,True
677,GLWD00000677,Bear,42.0181,-111.3292,False,False,True,True,True
679,GLWD00000679,Võrtsjärv,58.3042,26.0347,False,False,True,True,True
681,GLWD00000681,Ngoin,31.5792,88.7708,False,False,True,True,True
684,GLWD00000684,Kiskittogisu,54.1486,-98.3958,True,False,True,True,True
685,GLWD00000685,Paiku,28.8375,85.6042,False,False,True,True,True
687,GLWD00000687,George,0.0069,30.2292,True,False,True,True,True
688,GLWD00000688,Song-Kul,41.8458,75.1264,False,False,True,True,True
690,GLWD00000690,Prespa,40.8875,21.0375,True,False,True,True,True
699,GLWD00000699,Pavylon,68.4375,151.8681,False,False,True,True,True
702,GLWD00000702,Saint Lawrence,45.2208,-74.2097,False,False,True,True,True
706,GLWD00000706,Beysugskiy,46.0958,38.4764,False,False,True,True,True
708,GLWD00000708,Hong,29.8097,113.3292,True,False,True,True,True
710,GLWD00000710,Uddjaur,66.0264,17.7264,False,False,True,True,True
713,GLWD00000713,Tobin,53.6014,-103.4653,False,False,True,True,True
718,GLWD00000718,Gozha,35.0181,80.9931,False,False,True,True,True
723,GLWD00000723,Enriquillo,18.4542,-71.5819,False,False,True,True,True
725,GLWD00000725,Dogai Coring,34.5542,88.9986,True,True,True,True,True
728,GLWD00000728,Red Deer,52.9625,-101.3542,False,False,True,True,True
729,GLWD00000729,Toktogul'skoye,41.8042,72.8431,True,True,True,True,True
730,GLWD00000730,Quill-Lakes,51.8486,-104.3625,False,False,True,True,True
731,GLWD00000731,Zapatosa,9.0653,-73.8486,False,False,True,True,True
732,GLWD00000732,Zonag,35.5569,91.8931,True,False,True,True,True
733,GLWD00000733,Kiskittogisu,54.2625,-98.6125,True,False,True,True,True
736,GLWD00000736,Hoh Sai,35.6903,92.9208,False,False,True,True,True
738,GLWD00000738,Habbaniyah,33.2792,43.5153,True,False,True,True,True
744,GLWD00000744,Ta-tse,31.9042,87.5486,True,True,True,True,True
746,GLWD00000746,Lake Maurepas,30.2514,-90.5042,False,False,True,True,True
748,GLWD00000748,Calcasieu,29.8819,-93.2903,False,False,True,True,True
754,GLWD00000754,Cumberland,54.0125,-102.2986,False,False,True,True,True
755,GLWD00000755,Chabyer-Lake,31.4431,84.0486,False,False,True,True,True
756,GLWD00000756,Kronotskoye,54.7903,160.2153,False,False,True,True,True
758,GLWD00000758,Hornavan,66.1764,17.7153,False,False,True,True,True
761,GLWD00000761,Winnibigoshish,47.4125,-94.2264,False,False,True,True,True
767,GLWD00000767,Erhai,25.8042,100.1819,False,False,True,True,True
770,GLWD00000770,Adjuntas,23.9625,-98.7514,False,False,True,True,True
771,GLWD00000771,Wasekamio,56.5347,-108.6569,False,False,True,True,True
773,GLWD00000773,Orog,50.1597,91.0181,False,False,True,True,True
779,GLWD00000779,Wapawekka,54.9181,-104.6764,True,False,True,True,True
782,GLWD00000782,Pasfield,58.3847,-105.3236,False,False,True,True,True
790,GLWD00000790,Wu-liang-su,40.9986,108.8625,False,False,True,True,True
791,GLWD00000791,Shijiu,31.4847,118.9181,False,False,True,True,True
792,GLWD00000792,Nerpich'ye,69.3125,160.0014,False,False,True,True,True
794,GLWD00000794,Saitlan,54.9847,78.5847,True,False,True,True,True
797,GLWD00000797,Red Sucker,54.1431,-93.8097,False,False,True,True,True
799,GLWD00000799,Hawizeh-Marshes,31.3792,47.7236,True,False,False,True,True
800,GLWD00000800,Corangamite,-38.0986,143.4542,True,False,True,True,True
801,GLWD00000801,Feia,-21.9931,-41.3875,False,False,True,True,True
804,GLWD00000804,Sachigo,53.8292,-92.1375,False,False,True,True,True
805,GLWD00000805,Biche,54.8986,-112.2042,False,False,True,True,True
806,GLWD00000806,Qaroun,29.4569,30.5847,False,False,True,True,True
810,GLWD00000810,Plonge,55.1014,-107.2819,False,False,True,True,True
811,GLWD00000811,Stora-Lulevatten,67.2181,19.1931,False,False,True,True,True
812,GLWD00000812,Lixi'Oidain,35.7431,90.2181,True,False,True,True,True
817,GLWD00000817,Great Bitter,30.3319,32.3736,False,False,True,True,True
818,GLWD00000818,Taal,13.9486,120.9986,False,False,True,True,True
819,GLWD00000819,Donggi Cona,35.2653,98.6431,False,False,True,True,True
824,GLWD00000824,Moultrie,33.3181,-80.0625,False,False,True,True,True
825,GLWD00000825,Tishke,66.2597,31.9069,False,False,True,True,True
827,GLWD00000827,Dalai,43.2847,116.6514,True,False,True,True,True
829,GLWD00000829,Langano,7.5986,38.7597,True,False,True,True,True
831,GLWD00000831,Rupanco,-40.8014,-72.5736,True,False,True,True,True
833,GLWD00000833,Sirindhorn,15.1569,105.3875,False,False,True,True,True
836,GLWD00000836,Salvador,29.7125,-90.2625,False,False,True,True,True
837,GLWD00000837,Waterhen,52.0819,-99.5736,False,False,True,True,True
840,GLWD00000840,Yalpug,45.2986,28.6653,False,False,True,True,True
849,GLWD00000849,Blackwater,63.9375,-123.1625,False,False,True,True,True
851,GLWD00000851,Tenis,56.1514,71.7236,False,False,True,True,True
870,GLWD00000870,Aralsor-Koli,49.0625,48.1875,False,False,True,True,True
872,GLWD00000872,White,29.7625,-92.5569,False,False,True,True,True
876,GLWD00000876,Weishan,34.5986,117.2319,False,False,True,True,True
879,GLWD00000879,Alakol,44.8708,74.1958,False,False,True,True,True
881,GLWD00000881,Burdur,37.7264,30.1653,False,False,True,True,True
882,GLWD00000882,Upper Ugashik,57.6458,-156.7486,False,False,True,True,True
883,GLWD00000883,Mono,38.0181,-118.9681,True,False,True,True,True
892,GLWD00000892,Fuxian,24.5847,102.8986,False,False,True,True,True
893,GLWD00000893,Neuchatel,46.9569,6.9375,True,False,True,True,True
894,GLWD00000894,Molochnoye,46.5042,35.3514,False,False,True,True,True
902,GLWD00000902,Teke,53.8375,72.9347,False,False,True,True,True
904,GLWD00000904,Waswanipi,49.5319,-76.3931,False,False,True,True,True
905,GLWD00000905,Oneida Lake,43.1931,-75.8875,False,False,True,True,True
907,GLWD00000907,Shalkar,50.5569,51.6792,False,False,True,True,True
908,GLWD00000908,Loche,56.5208,-109.5875,False,False,True,True,True
910,GLWD00000910,Canoe,55.1764,-108.2653,False,False,True,True,True
913,GLWD00000913,Hsu-ju,30.3181,86.4069,False,False,True,True,True
915,GLWD00000915,Cabaliana,-3.3125,-60.8236,False,False,True,True,True
917,GLWD00000917,Zimbambo,-8.0347,26.9208,True,True,True,True,True
920,GLWD00000920,Telmen,48.8486,97.3514,True,False,True,True,True
924,GLWD00000924,Dorge,35.2181,92.1347,False,False,True,True,True
929,GLWD00000929,George,29.2986,-81.5958,False,False,True,True,True
931,GLWD00000931,Robert S. Kerr,35.3542,-94.8597,False,False,True,True,True
934,GLWD00000934,Pukaki,-44.0597,170.1736,True,False,True,True,True
936,GLWD00000936,Yanisyarni,61.9792,30.9708,True,False,True,True,True
937,GLWD00000937,Rana Pratap,24.8153,75.5986,False,False,True,True,True
940,GLWD00000940,Laberge,61.0625,-135.1153,False,False,True,True,True
944,GLWD00000944,Bolshoye-Morskoye,70.0597,158.7319,False,False,True,True,True
945,GLWD00000945,Hanhowuz Howdany,37.1986,61.3153,False,False,True,True,True
948,GLWD00000948,Maggiore,45.9903,8.6819,False,False,True,True,True
949,GLWD00000949,Nanew,54.2319,-101.8653,False,False,True,True,True
953,GLWD00000953,Urua,-2.1931,-56.4958,False,False,True,True,True
954,GLWD00000954,Inland,66.4819,-159.8486,False,False,True,True,True
957,GLWD00000957,Alaotra,-17.4042,48.5597,False,False,True,True,True
960,GLWD00000960,Malyye Chany,54.5486,77.9958,False,False,True,True,True
962,GLWD00000962,Del-Toro,-51.2097,-72.7042,False,False,True,True,True
970,GLWD00000970,Baitu,30.7903,117.1042,False,False,True,True,True
975,GLWD00000975,Guiers,16.2708,-15.8319,False,False,True,True,True
976,GLWD00000976,Bartlett,63.0931,-118.4486,False,False,True,True,True
977,GLWD00000977,Reed,54.6125,-100.3736,False,False,True,True,True
982,GLWD00000982,Sangiyn Dalay,49.2736,98.9458,False,False,True,True,True
983,GLWD00000983,Rinqin-Xub-Lake,31.2847,83.4597,False,False,True,True,True
985,GLWD00000985,Ulakh-Ulyung,68.2625,151.0792,False,False,True,True,True
989,GLWD00000989,Zige-Tang,32.0875,90.8792,True,False,True,True,True
990,GLWD00000990,Ge,31.6181,119.8347,False,False,True,True,True
1003,GLWD00001003,Talbot,54.0903,-99.8375,False,False,True,True,True
1007,GLWD00001007,Guarico,9.0458,-67.3847,False,False,True,True,True
1009,GLWD00001009,Missisa,52.2986,-85.1931,False,False,True,True,True
1010,GLWD00001010,Lower-Ugashik,57.5153,-156.9069,False,False,True,True,True
1011,GLWD00001011,Bolshoy-Uvat,57.5264,70.3875,False,False,True,True,True
1013,GLWD00001013,Røssvatnet,65.7681,14.0097,False,False,True,True,True
1016,GLWD00001016,Coipasa,-19.2597,-68.1403,False,False,True,True,True
1019,GLWD00001019,Mahoney,65.5042,-125.3653,False,False,True,True,True
1026,GLWD00001026,American-Falls,42.9736,-112.6958,True,False,True,True,True
1028,GLWD00001028,Bolmen,56.8653,13.6986,False,False,True,True,True
1029,GLWD00001029,Evoron,51.4792,136.5153,False,False,True,True,True
1031,GLWD00001031,Chagan,45.2181,124.3153,False,False,True,True,True
1035,GLWD00001035,Kyzylkak,53.4236,73.7764,False,False,True,True,True
1044,GLWD00001044,Jingyu,36.3403,89.4292,True,False,True,True,True
1046,GLWD00001046,Kabamba,-7.8819,27.0319,False,False,True,True,True
1050,GLWD00001050,Kuchukskoye,52.7153,79.7625,False,False,True,True,True
1053,GLWD00001053,Athapapuskow,54.5236,-101.6875,False,False,True,True,True
1054,GLWD00001054,Chambri,-4.2292,143.1292,False,False,True,True,True
1057,GLWD00001057,Corrib,53.4653,-9.2903,False,False,True,True,True
1058,GLWD00001058,Mamawi,58.6125,-111.4569,False,False,True,True,True
1059,GLWD00001059,Ukal,21.2375,73.7014,False,False,True,True,True
1061,GLWD00001061,Nilakka,63.1403,26.5597,False,False,True,True,True
1062,GLWD00001062,Wekusko,54.7792,-99.8486,False,False,True,True,True
1063,GLWD00001063,Hada-Naihaolai,49.0708,117.9736,False,False,True,True,True
1066,GLWD00001066,Bam,31.2042,90.5708,False,False,True,True,True
1071,GLWD00001071,Kesagami,50.3875,-80.2181,False,False,True,True,True
1075,GLWD00001075,Last-Mountain,51.1931,-105.2764,False,False,True,True,True
1076,GLWD00001076,Dukan,36.1347,44.9125,True,False,True,True,True
1079,GLWD00001079,Cuona,32.0569,91.4764,False,False,True,True,True
1083,GLWD00001083,Elton,49.1486,46.6708,False,False,True,True,True
1096,GLWD00001096,Aksayquin,35.2347,79.8514,True,False,True,True,True
1099,GLWD00001099,None,65.0875,-50.0403,False,False,True,True,True
1107,GLWD00001107,Junshan,28.5986,116.3097,False,False,True,True,True
1109,GLWD00001109,Villarrica,-39.2542,-72.0764,False,False,True,True,True
1110,GLWD00001110,Hirfanli,39.1931,33.5569,False,False,True,True,True
1111,GLWD00001111,Uru-Uru,-18.1403,-67.0986,False,False,True,True,True
1115,GLWD00001115,Neusiedl,47.8792,16.7875,False,False,True,True,True
1116,GLWD00001116,Rossignol,44.1764,-65.0958,False,False,True,True,True
1121,GLWD00001121,Negra,-34.0292,-53.6875,False,False,True,True,True
1128,GLWD00001128,Walker,38.7264,-118.7153,True,False,True,True,True
1129,GLWD00001129,Grand,29.8792,-92.7569,False,False,True,True,True
1130,GLWD00001130,Toson,37.1236,96.9153,False,False,True,True,True
1137,GLWD00001137,Aiapua,-4.3986,-62.1208,False,False,True,True,True
1145,GLWD00001145,Kus,40.1958,27.9958,False,False,True,True,True
1146,GLWD00001146,Abayata,7.6208,38.6042,False,False,True,True,True
1148,GLWD00001148,Mattamuskeet,35.4986,-76.1819,False,False,True,True,True
1149,GLWD00001149,Rann-Of-Kutch,24.1458,70.3486,False,False,True,True,True
1154,GLWD00001154,Abert,42.6875,-120.2181,False,False,True,True,True
1157,GLWD00001157,Koka,8.3792,39.0708,False,False,True,True,True
1169,GLWD00001169,Wabigoon,49.7458,-92.7847,False,False,True,True,True
1170,GLWD00001170,Great,-41.9319,146.7403,False,False,True,True,True
1174,GLWD00001174,Jili,46.9236,87.4486,False,False,True,True,True
1184,GLWD00001184,Gusinoye,51.2292,106.4403,False,False,True,True,True
1187,GLWD00001187,Ozhogino,69.2542,146.7042,False,False,True,True,True
1188,GLWD00001188,Clear,39.0736,-122.8486,False,False,True,True,True
1190,GLWD00001190,Grange-De-Monte-Alegre,-2.2569,-54.2264,False,False,True,True,True
1192,GLWD00001192,Kyebxang-Lake,32.4542,90.0097,False,False,True,True,True
1193,GLWD00001193,Canyon Ferry,46.4125,-111.5264,False,False,True,True,True
1195,GLWD00001195,Blanco,-54.0069,-68.9958,False,False,True,True,True
1196,GLWD00001196,Sea of Galilee,32.8292,35.5847,False,False,True,True,True
1199,GLWD00001199,Devils,48.0736,-99.1903,False,False,True,True,True
1201,GLWD00001201,Vanajavesi,61.1542,24.2375,True,False,True,True,True
1203,GLWD00001203,Aras-Dam,39.1875,45.3125,False,False,True,True,True
1204,GLWD00001204,Kasumigaura,36.0375,140.3958,False,False,True,True,True
1205,GLWD00001205,Daihai-Sea,40.5819,112.6903,False,False,True,True,True
1206,GLWD00001206,Dushan,35.0792,116.8069,False,False,True,True,True
1207,GLWD00001207,Puyehue,-40.6736,-72.4903,False,False,True,True,True
1208,GLWD00001208,Chlya,53.4431,140.0625,True,False,True,True,True
1213,GLWD00001213,Chatyr-Kol,40.6236,75.2903,True,False,True,True,True
1216,GLWD00001216,Berre,43.4403,5.1042,False,False,True,True,True
1218,GLWD00001218,Nyumba-Ya-Mungu-Reservoir,-3.6681,37.4125,True,False,True,True,True
1219,GLWD00001219,Nath-Lake,19.5014,75.2569,True,True,True,True,True
1221,GLWD00001221,Pelican-Lake,52.4819,-100.3264,False,False,True,True,True
1222,GLWD00001222,Beaverhill-Lake,53.4542,-112.5292,False,False,True,True,True
1236,GLWD00001236,Ulubat,40.1542,28.6292,False,False,True,True,True
1237,GLWD00001237,Finger,53.1292,-93.5681,False,False,True,True,True
1239,GLWD00001239,Tazlina,61.9042,-146.4958,False,False,True,True,True
1240,GLWD00001240,Pyhäjärvi,60.9931,22.3097,False,False,True,True,True
1241,GLWD00001241,Tefé,-3.3347,-64.7736,False,False,True,True,True
1246,GLWD00001246,Lappajärvi,63.1236,23.7014,False,False,True,True,True
1248,GLWD00001248,Baringo,0.6569,36.0625,False,False,True,True,True
1249,GLWD00001249,Walker,54.6958,-96.9542,False,False,True,True,True
1257,GLWD00001257,Tage,-3.8903,136.3125,False,False,True,True,True
1259,GLWD00001259,Strobel,-48.4347,-71.1847,True,False,True,True,True
1264,GLWD00001264,Junín,-11.0181,-76.1014,False,False,True,True,True
1266,GLWD00001266,Wellington,-38.0819,147.3569,False,False,True,True,True
1270,GLWD00001270,Bohu-Lake,30.1542,116.4681,False,False,True,True,True
1273,GLWD00001273,Arapa,-15.1569,-70.0569,True,False,True,True,True
1282,GLWD00001282,Tepouma,-1.8208,-55.9986,False,False,True,True,True
1283,GLWD00001283,Mu,30.6625,86.2236,False,False,True,True,True
1286,GLWD00001286,Karasor,49.8319,75.2569,True,True,True,True,True
1293,GLWD00001293,Hamrin,34.2153,45.0069,True,False,True,True,True
1294,GLWD00001294,Airag,48.8958,93.4486,False,False,True,True,True
1295,GLWD00001295,Llancanelo,-35.5514,-69.1292,False,False,True,True,True
1302,GLWD00001302,Tso-Moriri,32.9208,78.3125,False,False,True,True,True
1307,GLWD00001307,Mainit,9.4931,125.5181,False,False,True,True,True
1319,GLWD00001319,Svir',61.1569,34.8819,False,False,True,True,True
1321,GLWD00001321,Al-Massira,32.4431,-7.5569,False,False,True,True,True
1323,GLWD00001323,Palung,30.9097,83.5875,False,False,True,True,True
1327,GLWD00001327,Tudakul,39.8681,64.8681,False,False,True,True,True
1336,GLWD00001336,Bong,31.1875,91.2208,False,False,True,True,True
1344,GLWD00001344,Oologah,36.6347,-95.5597,False,False,True,True,True
1354,GLWD00001354,Memar,34.2597,82.2653,True,False,True,True,True
1355,GLWD00001355,General-Vintter,-43.9319,-71.5097,True,False,True,True,True
1357,GLWD00001357,Fitri,12.8403,17.4736,True,True,True,True,True
1358,GLWD00001358,Futou,30.0069,114.2042,False,False,True,True,True
1359,GLWD00001359,Wanapitei,46.7486,-80.7458,False,False,True,True,True
1360,GLWD00001360,Qamystybas,46.2125,61.8625,True,False,True,True,True
1361,GLWD00001361,El Huizache,22.9486,-106.0569,False,False,True,True,True
1368,GLWD00001368,Kissimmee,27.9014,-81.2819,False,False,True,True,True
1370,GLWD00001370,Calling,55.2458,-113.3042,False,False,True,True,True
1375,GLWD00001375,Candle,53.8514,-105.3319,False,False,True,True,True
1377,GLWD00001377,Rombebai,-1.8653,137.9153,False,False,True,True,True
1381,GLWD00001381,Soluntakh,71.7153,143.2597,False,False,True,True,True
1382,GLWD00001382,Dung,31.7208,91.1736,False,False,True,True,True
1392,GLWD00001392,Tyrifjorden,60.0264,10.2097,False,False,True,True,True
1409,GLWD00001409,Tandure,-32.2792,142.4653,False,False,True,True,True
1417,GLWD00001417,Beihuo-Luxun,36.9236,95.9347,False,False,True,True,True
1421,GLWD00001421,Nanhu,31.1236,118.9847,False,False,True,True,True
1422,GLWD00001422,Hindmarsh,-36.0486,141.9069,False,False,True,True,True
1423,GLWD00001423,Skagern,58.9653,14.2931,False,False,True,True,True
1424,GLWD00001424,Goose,54.4597,-101.4875,False,False,True,True,True
1425,GLWD00001425,Wasekamio,56.7736,-108.7569,False,False,True,True,True
1430,GLWD00001430,Luoma,34.0792,118.1958,False,False,True,True,True
1431,GLWD00001431,Orog,45.0569,100.8542,False,False,True,True,True
1432,GLWD00001432,Pung,31.4736,90.9514,True,False,True,True,True
1434,GLWD00001434,El Oviachic,27.8653,-109.8625,False,False,True,True,True
1437,GLWD00001437,Tansin,15.2708,-83.9181,False,False,True,True,True
1445,GLWD00001445,Bairab,35.0264,83.1292,True,False,True,True,True
1467,GLWD00001467,Ross-R.-Barnett,32.4458,-90.0264,False,False,True,True,True
1479,GLWD00001479,Atitla,14.7069,-91.1986,False,False,True,True,True
1482,GLWD00001482,None,30.6847,46.6236,False,False,True,True,True
1489,GLWD00001489,Winefred,55.4875,-110.5514,False,False,True,True,True
1493,GLWD00001493,Apopka,28.6347,-81.6347,False,False,True,True,True
1498,GLWD00001498,Sebago,43.8708,-70.5792,False,False,True,True,True
1501,GLWD00001501,Matatila-Dam,25.0847,78.3403,False,False,True,True,True
1503,GLWD00001503,Changhu,30.4403,112.4597,False,False,True,True,True
1504,GLWD00001504,Zhelin,29.2569,115.4681,True,False,True,True,True
1505,GLWD00001505,Sniardwy,53.7569,21.6958,False,False,True,True,True
1509,GLWD00001509,Summer,42.7875,-120.7319,False,False,True,True,True
1510,GLWD00001510,Quills,51.9181,-104.0903,False,False,True,True,True
1511,GLWD00001511,Pellegrini,-38.6931,-67.9847,True,False,True,True,True
1516,GLWD00001516,Baunt,55.1847,113.0181,True,False,True,True,True
1518,GLWD00001518,Cildir,41.0597,43.2458,False,False,True,True,True
1519,GLWD00001519,Derg,52.9125,-8.4319,False,False,True,True,True
1524,GLWD00001524,Gordon,56.4819,-110.3986,False,False,True,True,True
1526,GLWD00001526,Erne,54.4875,-7.8097,False,False,True,True,True
1529,GLWD00001529,Trasimeno,43.1514,12.0986,False,False,True,True,True
1534,GLWD00001534,Dawa,31.2458,84.9569,False,False,True,True,True
1537,GLWD00001537,Victoria,-33.9792,141.2681,False,False,True,True,True
1540,GLWD00001540,Dunedelatue,67.5236,-127.1153,False,False,True,True,True
1547,GLWD00001547,Crean,54.0736,-106.1681,False,False,True,True,True
1551,GLWD00001551,Chukochye,69.4514,160.2847,True,False,True,True,True
1555,GLWD00001555,Indawgyi-Natural,25.1208,96.3292,False,False,True,True,True
1557,GLWD00001557,Gasi-Kule,38.1319,90.7931,False,False,True,True,True
1560,GLWD00001560,Rei,-3.1431,-59.7153,False,False,True,True,True
1562,GLWD00001562,Almendra,41.2569,-6.2819,False,False,True,True,True
1567,GLWD00001567,Choke-Canyon,28.4819,-98.3042,False,False,True,True,True
1569,GLWD00001569,Nidili,63.6153,125.0986,False,False,True,True,True
1573,GLWD00001573,Unarba-2-Ya,68.3931,155.1625,False,False,True,True,True
1576,GLWD00001576,Ste-Therese,64.6292,-121.5542,True,False,True,True,True
1582,GLWD00001582,Night-Hawk,48.4764,-80.9431,False,False,True,True,True
1583,GLWD00001583,Calafquén,-39.5208,-72.1736,False,False,True,True,True
1584,GLWD00001584,Afrera,13.2736,40.8931,False,False,True,True,True
1594,GLWD00001594,Suggi,54.3625,-102.7764,False,False,True,True,True
1596,GLWD00001596,Bolsena,42.6042,11.9292,False,False,True,True,True
1597,GLWD00001597,Yangcheng,31.4292,120.8097,False,False,True,True,True
1608,GLWD00001608,Kirpilskiy,45.8708,38.1708,False,False,True,True,True
1609,GLWD00001609,Uyaly,46.4236,81.2764,False,False,True,True,True
1613,GLWD00001613,Keppetekh,68.1792,154.9931,False,False,True,True,True
1616,GLWD00001616,Poelela,-24.5264,35.0653,False,False,True,True,True
1618,GLWD00001618,Miyun,40.5375,116.9403,False,False,True,True,True
1619,GLWD00001619,Chem,34.1819,79.7792,False,False,True,True,True
1623,GLWD00001623,William,53.8097,-99.4125,False,False,True,True,True
1627,GLWD00001627,Azuei,18.5792,-72.0069,False,False,True,True,True
1629,GLWD00001629,Bulmer,62.7958,-120.7625,False,False,True,True,True
1632,GLWD00001632,Narvskoye-Vodokhranilishche,59.2986,28.1764,False,False,True,True,True
1640,GLWD00001640,Davy,58.8514,-108.3264,False,False,True,True,True
1649,GLWD00001649,Müritz,53.4069,12.7292,False,False,True,True,True
1652,GLWD00001652,Daggyai,29.8208,85.7264,False,False,True,True,True
1653,GLWD00001653,Xiaohaizi,39.7375,78.7375,False,False,True,True,True
1656,GLWD00001656,Dos Quadros,-29.6931,-50.0792,False,False,True,True,True
1658,GLWD00001658,Dongping,35.9625,116.1986,False,False,True,True,True
1659,GLWD00001659,Naivasha,-0.7681,36.3514,True,True,True,True,True
1666,GLWD00001666,Travaillant,67.6958,-131.7958,False,False,True,True,True
1676,GLWD00001676,Egg,55.1153,-105.5153,False,False,True,True,True
1679,GLWD00001679,Ekoln,59.7458,17.6097,False,False,True,True,True
1684,GLWD00001684,Suqian,38.8653,93.8958,False,False,True,True,True
1703,GLWD00001703,Kistigan,54.6458,-92.5347,True,False,True,True,True
1706,GLWD00001706,Rocky,54.1569,-101.4792,False,False,True,True,True
1714,GLWD00001714,Poygan,44.1486,-88.8403,False,False,True,True,True
1726,GLWD00001726,Terewah,-29.8486,147.3319,False,False,True,True,True
1730,GLWD00001730,Ringco-Kongma,30.9486,89.6486,False,False,True,True,True
1734,GLWD00001734,Omuk-Kyuel',71.0153,147.1847,False,False,True,True,True
1735,GLWD00001735,Malartic,48.2514,-78.1014,False,False,True,True,True
1740,GLWD00001740,Marfil,-15.5125,-60.2431,False,False,True,True,True
1745,GLWD00001745,Skilak,60.4347,-150.4347,False,False,True,True,True
1748,GLWD00001748,Almanor,40.2708,-121.1931,False,False,True,True,True
1749,GLWD00001749,Pozuelo,-22.3597,-66.0014,False,False,True,True,True
1756,GLWD00001756,Great-Sacandaga,43.1319,-74.1903,False,False,True,True,True
1761,GLWD00001761,Cascade,44.5792,-116.1069,False,False,True,True,True
1771,GLWD00001771,Rweru,-2.3958,30.3153,False,False,True,True,True
1774,GLWD00001774,Kabele,-8.9125,25.9597,True,True,True,True,True
1785,GLWD00001785,East-Taiji-Nai'Er,37.4903,93.9514,False,False,True,True,True
1787,GLWD00001787,Bolshoye-Erovnoye,52.6181,111.4986,False,False,True,True,True
1789,GLWD00001789,Dengizkul,39.1514,64.0903,False,False,True,True,True
1790,GLWD00001790,Yaggain,33.0486,89.7875,False,False,True,True,True
1793,GLWD00001793,Shalkar-Egakara,50.7514,60.8931,False,False,True,True,True
1801,GLWD00001801,Kabwe,-9.1819,26.0181,True,True,True,True,True
1802,GLWD00001802,San-Pedro,-31.3958,-60.5458,False,False,True,True,True
1806,GLWD00001806,Aru,33.9431,82.4319,False,False,True,True,True
1807,GLWD00001807,Jieze,33.9569,80.9014,True,False,True,True,True
1812,GLWD00001812,Taiyang,35.9292,90.5931,False,False,True,True,True
1815,GLWD00001815,Little-Sachigo,54.1653,-92.2347,False,False,True,True,True
1818,GLWD00001818,Manitou,45.7486,-81.9486,False,False,True,True,True
1827,GLWD00001827,Lagkor,32.0319,84.1431,False,False,True,True,True
1831,GLWD00001831,Glafsfjorden,59.5486,12.6597,False,False,True,True,True
1832,GLWD00001832,North-Wabasca,56.0542,-113.9292,False,False,True,True,True
1835,GLWD00001835,West-Taiji-Nai'Er,37.7125,93.3819,False,False,True,True,True
1840,GLWD00001840,Ercek,38.6847,43.5764,False,False,True,True,True
1841,GLWD00001841,Inawashiro,37.4708,140.1014,False,False,True,True,True
1853,GLWD00001853,Mandioré,-18.1708,-57.5458,False,False,True,True,True
1869,GLWD00001869,Ihotry,-21.9375,43.6958,False,False,True,True,True
1871,GLWD00001871,Lungmu,34.6264,80.4903,False,False,True,True,True
1872,GLWD00001872,Rogagua,-13.9653,-66.9819,False,False,True,True,True
1887,GLWD00001887,Kadibek,53.8375,70.6264,False,False,True,True,True
1891,GLWD00001891,Dogaicoring-Qang,35.3292,89.2458,True,False,True,True,True
1893,GLWD00001893,Roxen,58.5125,15.6236,False,False,True,True,True
1902,GLWD00001902,Maninjau,-0.2958,100.1931,False,False,True,True,True
1904,GLWD00001904,Semajang,-0.2319,116.4458,False,False,True,True,True
1908,GLWD00001908,Sled,54.4569,-107.4264,False,False,True,True,True
1910,GLWD00001910,Pigeon,53.0181,-114.0347,False,False,True,True,True
1913,GLWD00001913,Trichonis,38.5736,21.5625,False,False,True,True,True
1917,GLWD00001917,Xiangyang,35.8264,89.4542,True,False,True,True,True
1928,GLWD00001928,Heishi-North,35.5792,82.7847,True,False,True,True,True
1941,GLWD00001941,Valli-Di-Comacchio,44.6208,12.1681,False,False,True,True,True
1943,GLWD00001943,Chiuta,-14.8208,35.8458,False,False,True,True,True
1945,GLWD00001945,Keeley,54.9014,-108.1347,False,False,True,True,True
1951,GLWD00001951,Quachuna,-13.1625,-65.7708,False,False,True,True,True
1954,GLWD00001954,Uberaba,-17.4931,-57.8014,False,False,True,True,True
1955,GLWD00001955,Acará,-3.6542,-62.6903,False,False,True,True,True
1958,GLWD00001958,Argazi,55.3875,60.3958,False,False,True,True,True
1967,GLWD00001967,Burog,34.4292,85.7819,False,False,True,True,True
1969,GLWD00001969,Aqkol,48.8292,63.7403,False,False,True,True,True
1970,GLWD00001970,Mugqu,31.0403,89.0208,False,False,True,True,True
1971,GLWD00001971,Gomang,31.2292,89.2042,False,False,True,True,True
1975,GLWD00001975,Epecuén,-37.1181,-62.8986,False,False,True,True,True
1979,GLWD00001979,Zhangdu,30.6458,114.6958,False,False,True,True,True
1984,GLWD00001984,Unden,58.7931,14.4458,False,False,True,True,True
1989,GLWD00001989,Dog,51.0375,-98.5514,False,False,True,True,True
1993,GLWD00001993,Xiashan,36.4431,119.4819,False,False,True,True,True
1997,GLWD00001997,Syrkovoye,60.6375,65.0236,False,False,True,True,True
2012,GLWD00002012,Pueblo-Viejo,22.1792,-97.8931,False,False,True,True,True
2015,GLWD00002015,Barros,-29.9319,-50.3708,False,False,True,True,True
2018,GLWD00002018,Yueliang,45.7264,123.8986,False,False,True,True,True
2019,GLWD00002019,Tursunskiy-Tuman,60.5625,63.9181,False,False,True,True,True
2021,GLWD00002021,Lawford,54.5097,-96.6819,False,False,True,True,True
2027,GLWD00002027,Kostromskoye,57.9153,40.7069,False,False,True,True,True
2032,GLWD00002032,Eagle,40.7014,-120.6986,False,False,True,True,True
2048,GLWD00002048,Linggo,33.8458,88.5931,False,False,True,True,True
2054,GLWD00002054,Vuohijärvi,61.2153,26.6736,False,False,True,True,True
2057,GLWD00002057,Ulken-Azhbolat,53.2597,77.4542,False,False,True,True,True
2064,GLWD00002064,Kaweenakumik,52.8681,-99.5097,False,False,True,True,True
2073,GLWD00002073,Sarmiento,-51.0208,-72.6625,False,False,True,True,True
2092,GLWD00002092,Castillos,-34.3069,-53.9319,False,False,True,True,True
2097,GLWD00002097,Pakwash,50.7597,-93.4875,False,False,True,True,True
2099,GLWD00002099,Monte,-36.9903,-62.5042,False,False,True,True,True
2102,GLWD00002102,Mawdesley,54.0264,-100.6625,False,False,True,True,True
2104,GLWD00002104,Datong,29.2097,112.5097,False,False,True,True,True
2107,GLWD00002107,Orotko,70.8736,138.3069,False,False,True,True,True
2109,GLWD00002109,Jacques,66.2319,-127.3764,False,False,True,True,True
2111,GLWD00002111,Cienaga-Chilloa,9.1569,-74.0792,True,False,True,True,True
2113,GLWD00002113,Teniz,54.1208,64.5569,False,False,True,True,True
2116,GLWD00002116,Qagoi,31.8208,88.2208,False,False,True,True,True
2117,GLWD00002117,Birch,62.0653,-116.5597,False,False,True,True,True
2124,GLWD00002124,Awasa,7.0347,38.4264,False,False,True,True,True
2129,GLWD00002129,Kahul,45.3681,28.3986,False,False,True,True,True
2130,GLWD00002130,Tadenet,68.6542,-126.0819,False,False,True,True,True
2132,GLWD00002132,Spring,41.9431,-90.1542,False,False,True,True,True
2138,GLWD00002138,Quemo,33.8681,91.1903,False,False,True,True,True
2148,GLWD00002148,Kishi-Qaraoy-Koli,54.0264,71.3236,False,False,True,True,True
2156,GLWD00002156,Changdang,31.6292,119.5542,False,False,True,True,True
2157,GLWD00002157,Atasta,18.5764,-92.1903,False,False,True,True,True
2162,GLWD00002162,Gull,52.5597,-114.0236,False,False,True,True,True
2167,GLWD00002167,Lub?ns,56.7764,26.8847,False,False,True,True,True
2168,GLWD00002168,Millwood,33.7292,-93.9653,False,False,True,True,True
2179,GLWD00002179,Semmens,55.0569,-94.1653,False,False,True,True,True
2186,GLWD00002186,Pingvallavatn,64.2097,-21.1486,False,False,True,True,True
2190,GLWD00002190,Chila,22.2181,-98.0903,False,False,True,True,True
2192,GLWD00002192,Buffalo,52.4875,-112.8597,False,False,True,True,True
2199,GLWD00002199,Tasersuaq,66.7542,-50.9375,False,False,True,True,True
2201,GLWD00002201,Bilikol,43.0181,70.6903,True,False,True,True,True
2202,GLWD00002202,Cam,32.1292,83.5347,False,False,True,True,True
2203,GLWD00002203,Sengli,30.4292,84.0681,False,False,True,True,True
2226,GLWD00002226,Khanskoye,46.2625,38.3458,False,False,True,True,True
2228,GLWD00002228,Anibal-Pinto,-52.0208,-72.4653,False,False,True,True,True
2232,GLWD00002232,Mokoan,-36.4486,146.0847,False,False,True,True,True
2238,GLWD00002238,Barkol,43.6764,92.7903,False,False,True,True,True
2239,GLWD00002239,Uryum,54.5569,78.4903,False,False,True,True,True
2243,GLWD00002243,Paru,-1.9125,-55.7958,False,False,True,True,True
2245,GLWD00002245,Oak,49.6653,-100.7514,False,False,True,True,True
2246,GLWD00002246,Anolgytgyn,60.0069,163.7097,False,False,True,True,True
2253,GLWD00002253,Clear,41.8792,-121.1792,False,False,True,True,True
2259,GLWD00002259,Baril,58.7764,-111.6597,False,False,True,True,True
2262,GLWD00002262,Dezadeash,60.4819,-136.9958,False,False,True,True,True
2263,GLWD00002263,Kazan,55.5625,-108.3347,False,False,True,True,True
2264,GLWD00002264,Kurilskoye,51.4542,157.0986,False,False,True,True,True
2270,GLWD00002270,Bayan,48.4569,95.1347,False,False,True,True,True
2271,GLWD00002271,Kinkony,-16.1458,45.8319,True,False,True,True,True
2273,GLWD00002273,Chonduya,68.5819,152.2819,False,False,True,True,True
2276,GLWD00002276,Kotcho,59.0653,-121.1097,False,False,True,True,True
2280,GLWD00002280,Iberã-Wetlands-(Part),-28.0931,-56.7819,False,False,True,True,True
2285,GLWD00002285,Ebeyty,54.6514,71.7319,False,False,True,True,True
2304,GLWD00002304,Yanghu,35.4292,84.6458,True,False,True,True,True
2305,GLWD00002305,Salt-Water,35.2931,83.1153,False,False,True,True,True
2313,GLWD00002313,Ihema,-1.8458,30.7875,False,False,True,True,True
2314,GLWD00002314,Khukh,49.4986,115.5847,False,False,True,True,True
2315,GLWD00002315,Beidagang,38.7208,117.3764,False,False,True,True,True
2316,GLWD00002316,Suyahu,33.0458,114.2431,False,False,True,True,True
2317,GLWD00002317,Chiemsee,47.8903,12.4681,False,False,True,True,True
2323,GLWD00002323,Peerless,56.6514,-114.6514,False,False,True,True,True
2326,GLWD00002326,Chip,53.6542,-115.3792,False,False,True,True,True
2330,GLWD00002330,Hargrave,54.4653,-99.6958,False,False,True,True,True
2331,GLWD00002331,Andreevskoye,58.9014,66.8625,False,False,True,True,True
2335,GLWD00002335,Birch,64.3597,-121.9236,False,False,True,True,True
2336,GLWD00002336,Norra-Dellen,61.8931,16.6931,False,False,True,True,True
2345,GLWD00002345,Houghton,44.3403,-84.7292,False,False,True,True,True
2351,GLWD00002351,Copp,60.2597,-114.7347,False,False,True,True,True
2358,GLWD00002358,Glan,58.6208,15.9653,False,False,True,True,True
2361,GLWD00002361,Margog,33.8458,86.9958,False,False,True,True,True
2364,GLWD00002364,Djorf-Torba,31.5375,-2.7486,False,False,True,True,True
2365,GLWD00002365,Hawizeh-Marshes,31.5986,47.6292,True,False,True,True,True
2367,GLWD00002367,Assean,56.2014,-96.5819,False,False,True,True,True
2368,GLWD00002368,Big-Sandy,54.4208,-104.1069,False,False,True,True,True
2369,GLWD00002369,Black,30.0319,-93.4319,False,False,True,True,True
2371,GLWD00002371,Bering,60.2903,-144.3153,False,False,True,True,True
2388,GLWD00002388,Baskunchak,48.1847,46.8986,False,False,True,True,True
2395,GLWD00002395,Caddabassa,10.2014,40.4708,False,False,True,True,True
2403,GLWD00002403,Brooks,58.5236,-155.8375,False,False,True,True,True
2408,GLWD00002408,Sasyk,45.1958,33.4958,False,False,True,True,True
2415,GLWD00002415,Cuoda-Rima,35.3347,91.8486,True,False,True,True,True
2418,GLWD00002418,Turtle,53.5792,-108.6569,False,False,True,True,True
2420,GLWD00002420,Waterhen,54.4736,-108.4681,False,False,True,True,True
2421,GLWD00002421,Chitek,52.4292,-99.4236,False,False,True,True,True
2425,GLWD00002425,Narach,54.8514,26.7764,False,False,True,True,True
2427,GLWD00002427,Fati,16.2625,-3.6819,False,False,True,True,True
2436,GLWD00002436,Weyakwin,54.5097,-105.9792,False,False,True,True,True
2447,GLWD00002447,Margaret,58.9458,-115.3486,False,False,True,True,True
2470,GLWD00002470,Richardson,58.3875,-111.0736,False,False,True,True,True
2473,GLWD00002473,Storsjön,60.5653,16.7097,False,False,True,True,True
2475,GLWD00002475,Yuye,36.0236,88.7986,False,False,True,True,True
2477,GLWD00002477,Wellesley,62.3653,-139.7847,False,False,True,True,True
2484,GLWD00002484,Catemaco,18.4069,-95.0625,False,False,True,True,True
2485,GLWD00002485,Nn,67.3625,-126.0153,False,False,True,True,True
2495,GLWD00002495,Clive,63.2181,-118.8819,False,False,True,True,True
2497,GLWD00002497,Leushinskiy-Tuman,59.6847,65.7153,False,False,True,True,True
2507,GLWD00002507,Azhibeksor-Koli,50.1458,68.3931,True,False,True,True,True
2511,GLWD00002511,Meiriqiecuomari,33.6486,89.7292,False,False,True,True,True
2516,GLWD00002516,Lomond,56.0708,-4.5792,False,False,True,True,True
2517,GLWD00002517,Guanting,40.3847,115.7792,False,False,True,True,True
2518,GLWD00002518,Balmaceda,-51.8875,-72.3514,False,False,True,True,True
2528,GLWD00002528,Chukochye,69.3736,160.1319,False,False,True,True,True
2532,GLWD00002532,Nissum-Fjord,56.3486,8.1986,False,False,True,True,True
2535,GLWD00002535,Ulakhan-Kyuel',67.7764,124.2403,False,False,True,True,True
2540,GLWD00002540,Nn-Glacial,80.1625,-22.0986,False,False,True,True,True
2544,GLWD00002544,Lenore,52.5097,-104.9736,False,False,True,True,True
2547,GLWD00002547,Dayan,48.3736,88.8236,False,False,True,True,True
2550,GLWD00002550,Zarate-Ceiba,9.7264,-74.7208,False,False,True,True,True
2554,GLWD00002554,ÅEbsko,54.7097,17.3931,False,False,True,True,True
2559,GLWD00002559,La-Gaiba,-17.7819,-57.7236,False,False,True,True,True
2560,GLWD00002560,Witchekan,53.4236,-107.5847,False,False,True,True,True
2569,GLWD00002569,Serbug,32.0042,88.2097,True,False,True,True,True
2594,GLWD00002594,Jackfish,53.0708,-108.4042,False,False,True,True,True
2595,GLWD00002595,Waskesiu,53.9431,-106.1625,False,False,True,True,True
2611,GLWD00002611,Neri-Pun,31.3125,91.4542,False,False,True,True,True
2613,GLWD00002613,Nyi,34.5764,87.3181,False,False,True,True,True
2616,GLWD00002616,Harris,28.7736,-81.8097,False,False,True,True,True
2627,GLWD00002627,Ik,56.0569,71.5431,False,False,True,True,True
2649,GLWD00002649,Chihu,29.7764,115.7042,False,False,True,True,True
2655,GLWD00002655,Tetlin,63.0875,-142.7653,False,False,True,True,True
2663,GLWD00002663,Oigon,49.1653,96.6181,False,False,True,True,True
2673,GLWD00002673,Whitemouth,49.2347,-95.6708,False,False,True,True,True
2682,GLWD00002682,Uvsiin-Khar-Us,49.0986,91.9403,False,False,True,True,True
2693,GLWD00002693,Ilopango,13.6708,-89.0458,False,False,True,True,True
2695,GLWD00002695,Ruzhnikova,67.8597,155.9153,False,False,True,True,True
2696,GLWD00002696,Bolshoye-Yarovoye,52.8736,78.6069,False,False,True,True,True
2701,GLWD00002701,Daxi-Haizi,40.5736,87.5292,False,False,True,True,True
2709,GLWD00002709,Arsenault,55.0958,-108.5458,False,False,True,True,True
2720,GLWD00002720,Gomo,33.6681,85.8125,False,False,True,True,True
2724,GLWD00002724,Leche,22.1931,-78.6181,False,False,True,True,True
2725,GLWD00002725,Kadi,51.8681,140.4792,False,False,True,True,True
2731,GLWD00002731,Muriel,54.1431,-110.6847,False,False,True,True,True
2750,GLWD00002750,Suturuaka,69.1542,145.4125,False,False,True,True,True
2762,GLWD00002762,Coronda,-32.0958,-60.8819,False,False,True,True,True
2779,GLWD00002779,El-Floral-Iguana,8.7431,-74.4292,False,False,True,True,True
2786,GLWD00002786,None,35.6986,91.3569,False,False,True,True,True
2798,GLWD00002798,Runn,60.5681,15.7153,False,False,True,True,True
2799,GLWD00002799,Phelps,35.7681,-76.4431,False,False,True,True,True
2803,GLWD00002803,Kotlabukh,45.4264,28.9903,False,False,True,True,True
2809,GLWD00002809,Simpson,68.1097,-126.6069,False,False,True,True,True
2812,GLWD00002812,Potholes,47.0097,-119.3319,False,False,True,True,True
2819,GLWD00002819,Telashi,34.8069,92.2181,True,False,True,True,True
2877,GLWD00002877,Margai,35.1292,86.7514,False,False,True,True,True
2881,GLWD00002881,Chamu,34.3569,91.6153,False,False,True,True,True
2898,GLWD00002898,Grenada,33.8319,-89.7375,False,False,True,True,True
2907,GLWD00002907,Parinacochas,-15.2931,-73.7125,False,False,True,True,True
2923,GLWD00002923,Manchar,26.4236,67.6431,False,False,True,True,True
2926,GLWD00002926,Oron,54.8236,112.3014,False,False,True,True,True
2927,GLWD00002927,Varano,41.8792,15.7597,False,False,True,True,True
2940,GLWD00002940,Tuman,59.5986,66.2847,False,False,True,True,True
2944,GLWD00002944,Redberry,52.6986,-107.1597,False,False,True,True,True
2946,GLWD00002946,Ngoin,31.4819,91.5014,False,False,True,True,True
2955,GLWD00002955,Uvildy,55.5181,60.5125,False,False,True,True,True
2960,GLWD00002960,Caribou,67.9847,-132.9347,False,False,True,True,True
2961,GLWD00002961,Kurchanskiy,45.2847,37.4736,False,False,True,True,True
2965,GLWD00002965,Mandje,-2.8042,10.3597,False,False,True,True,True
2970,GLWD00002970,Newell,50.4153,-111.9514,False,False,True,True,True
2974,GLWD00002974,Kelsey,53.6458,-101.0681,False,False,True,True,True
2978,GLWD00002978,Burt,45.4569,-84.6653,False,False,True,True,True
2985,GLWD00002985,Zhizhitskoye,56.2208,31.2431,False,False,True,True,True
2988,GLWD00002988,Allemands,29.9264,-90.5681,False,False,True,True,True
3002,GLWD00003002,Parsons,68.9625,-133.6403,False,False,True,True,True
3007,GLWD00003007,Cienaga-De-Ayapel,8.3681,-75.0764,False,False,True,True,True
3020,GLWD00003020,Keluke,37.2847,96.8986,False,False,True,True,True
3025,GLWD00003025,Hourtin,45.1597,-1.1042,False,False,True,True,True
3040,GLWD00003040,Katimik,52.8986,-99.3875,False,False,True,True,True
3044,GLWD00003044,Yibug,32.9792,86.7125,False,False,True,True,True
3045,GLWD00003045,Xuejing,35.9847,87.3319,False,False,True,True,True
3053,GLWD00003053,Las-Salinas,-16.3569,-71.1236,False,False,True,True,True
3078,GLWD00003078,Ngoinyar,32.9792,88.6875,False,False,True,True,True
3079,GLWD00003079,Garson,56.3292,-110.0069,False,False,True,True,True
3097,GLWD00003097,Vyshnevolotskoye,57.5569,34.4708,False,False,True,True,True
3109,GLWD00003109,Ebro,43.0153,-3.9181,False,False,True,True,True
3111,GLWD00003111,Luotuo,34.4375,81.9764,True,False,True,True,True
3114,GLWD00003114,Ness,57.3792,-4.3597,False,False,True,True,True
3129,GLWD00003129,Rorey,66.9264,-128.3958,False,False,True,True,True
3132,GLWD00003132,Colorada-Catalina-Alibu,9.5958,-74.7097,False,False,True,True,True
3133,GLWD00003133,Kilekale,66.6569,-123.9153,False,False,True,True,True
3135,GLWD00003135,Wuskwatim,55.5653,-98.5347,False,False,True,True,True
3150,GLWD00003150,Ofhidro,-53.9625,-69.4042,False,False,True,True,True
3156,GLWD00003156,Yurba,35.7403,86.6986,False,False,True,True,True
3171,GLWD00003171,Marryat-Inlet,68.3764,-166.6514,False,False,True,True,True
3173,GLWD00003173,Balyma,67.8764,151.8875,False,False,True,True,True
3188,GLWD00003188,Ste-Anne,53.7069,-114.3875,False,False,True,True,True
3189,GLWD00003189,George,-37.3875,139.9764,False,False,True,True,True
3191,GLWD00003191,Towada,40.4736,140.8681,False,False,True,True,True
3196,GLWD00003196,Cazaux-Et-De-Sanguinet,44.4903,-1.1569,False,False,True,True,True
3200,GLWD00003200,Talimardzhan,38.3681,65.5708,False,False,True,True,True
3201,GLWD00003201,Rola,35.4097,88.3792,False,False,True,True,True
3208,GLWD00003208,None,38.9514,48.8792,False,False,True,True,True
3211,GLWD00003211,Boye-So,70.1097,-50.6292,False,False,True,True,True
3218,GLWD00003218,Melincué,-33.7097,-61.4625,False,False,True,True,True
3219,GLWD00003219,None,65.6153,-50.3181,False,False,True,True,True
3231,GLWD00003231,Frog,53.9347,-110.3403,False,False,True,True,True
3238,GLWD00003238,Verret,29.8819,-91.1597,False,False,True,True,True
3243,GLWD00003243,Kingsmere,54.1069,-106.4514,False,False,True,True,True
3258,GLWD00003258,Bugunskoye-Water,42.7347,69.0736,True,False,True,True,True
3276,GLWD00003276,Maloye-Erovnoye,52.6597,111.6375,False,False,True,True,True
3281,GLWD00003281,Orsasjön,61.0819,14.5486,False,False,True,True,True
3307,GLWD00003307,Bracciano,42.1236,12.2292,False,False,True,True,True
3309,GLWD00003309,Kytai,45.5014,29.1431,False,False,True,True,True
3312,GLWD00003312,Kubuy,71.0486,137.7681,False,False,True,True,True
3343,GLWD00003343,Pongyin,32.8958,88.1792,False,False,True,True,True
3347,GLWD00003347,Duvankul',54.5931,61.5653,False,False,True,True,True
3350,GLWD00003350,Dabie,53.4542,14.6764,False,False,True,True,True
3365,GLWD00003365,Arakhley,52.2069,112.8792,False,False,True,True,True
3373,GLWD00003373,Assal,11.6653,42.4097,False,False,True,True,True
3379,GLWD00003379,Raznas,56.3292,27.4569,False,False,True,True,True
3392,GLWD00003392,Magiss,52.9764,-91.6875,False,False,True,True,True
3394,GLWD00003394,Dangqiong,31.5708,86.7403,True,False,True,True,True
3397,GLWD00003397,Montigny,48.1486,-77.9208,False,False,True,True,True
3398,GLWD00003398,Dyryn-Ebe,67.7153,154.5042,False,False,True,True,True
3421,GLWD00003421,Koybagar,52.6014,65.5792,False,False,True,True,True
3446,GLWD00003446,Rufus,69.5986,-129.9931,False,False,True,True,True
3471,GLWD00003471,Laguna-Del-Palmar,-29.5736,-60.7069,False,False,True,True,True
3476,GLWD00003476,Shitou-Koumen,43.8431,125.8097,False,False,True,True,True
3478,GLWD00003478,Sorell,-42.0903,147.1847,False,False,True,True,True
3493,GLWD00003493,Crater,42.9431,-122.0986,False,False,True,True,True
3500,GLWD00003500,Maraldy,52.3125,77.7736,False,False,True,True,True
3523,GLWD00003523,Wabimeig,51.4708,-85.5875,False,False,True,True,True
3529,GLWD00003529,Brackett,65.2125,-125.3514,False,False,True,True,True
3534,GLWD00003534,Garkung,33.9681,86.4847,True,False,True,True,True
3539,GLWD00003539,Baidoi,32.7764,87.8042,False,False,True,True,True
3566,GLWD00003566,Iznajar,37.2819,-4.3486,False,False,True,True,True
3570,GLWD00003570,Colens-(Western),54.5681,-95.4403,False,False,True,True,True
3586,GLWD00003586,Bin-El-Ouidane,32.0986,-6.4042,False,False,True,True,True
3587,GLWD00003587,Cardinal,56.2347,-117.7403,False,False,True,True,True
3604,GLWD00003604,Basin,52.6069,-105.2792,False,False,True,True,True
3607,GLWD00003607,Boraphet,15.7069,100.2292,False,False,True,True,True
3614,GLWD00003614,Venustiano-Carranza,27.5014,-100.6375,False,False,True,True,True
4292,GLWD00004292,Brate?,45.4847,28.0708,False,False,True,True,True
4503,GLWD00004503,Mendota,43.1069,-89.4125,False,False,True,True,True
4947,GLWD00004947,Erne-Lough,54.2458,-7.5708,False,False,True,True,True
4953,GLWD00004953,Bogoria,0.2542,36.0958,True,True,True,True,True
5506,GLWD00005506,Great-Pond,44.5375,-69.8431,False,False,True,True,True
5729,GLWD00005729,Åmänningen,59.9458,15.9792,False,False,True,True,True
6048,GLWD00006048,Poinsett,44.5542,-97.0958,False,False,True,True,True
6561,GLWD00006561,Squam,43.7625,-71.5125,False,False,True,True,True
6785,GLWD00006785,Erken,59.8458,18.5764,False,False,True,True,True
7434,GLWD00007434,Norra-Barken,60.1208,15.5042,False,False,True,True,True
7739,GLWD00007739,Bemidji,47.5208,-94.8458,False,False,True,True,True
7840,GLWD00007840,Loskop,-25.4292,29.3208,False,False,True,True,True
7889,GLWD00007889,Melvin,54.4208,-8.1264,False,False,True,True,True
8089,GLWD00008089,Badabag,44.9236,28.7597,False,False,True,True,True
8527,GLWD00008527,Cuerda-Del-Pozo,41.8542,-2.7458,False,False,True,True,True
9168,GLWD00009168,Dranov,44.8708,29.1903,False,False,True,True,True
9322,GLWD00009322,Sunapee,43.3986,-72.0514,False,False,True,True,True
10161,GLWD00010161,Pike Bay,47.3542,-94.5708,False,False,True,True,True
10421,GLWD00010421,Lake Hancock,27.9708,-81.8375,False,False,True,True,True
10679,GLWD00010679,ALBUFERA-Lagoon,39.3375,-0.3625,False,False,True,True,True
10694,GLWD00010694,Hartbeespoort,-25.7458,27.8625,False,False,True,True,True
12200,GLWD00012200,West-Okoboji,43.3792,-95.1542,False,False,True,True,True
12262,GLWD00012262,Leven,56.2042,-3.3792,False,False,True,True,True
12471,GLWD00012471,Trout,46.0319,-89.6708,False,False,True,True,True
13377,GLWD00013377,Douglas,45.5819,-84.7069,False,False,True,True,True
13484,GLWD00013484,Bitter,45.2792,-97.3208,False,False,True,True,True
13916,GLWD00013916,Gorgova,45.1542,29.1903,False,False,True,True,True
15309,GLWD00015309,Ro?u-Ro?ule?,45.0569,29.5681,False,False,True,True,True
15600,GLWD00015600,Idro,45.7792,10.5125,False,False,True,True,True
16662,GLWD00016662,Jijila,45.3486,28.1208,False,False,False,True,True
16814,GLWD00016814,Lumina,45.0875,29.4903,False,False,True,True,True
17329,GLWD00017329,Merhei,45.3236,29.4542,False,False,True,True,True
18089,GLWD00018089,Macnean-Lough,54.2875,-7.8458,False,False,False,True,True
18140,GLWD00018140,Rosarito,40.1042,-5.3125,False,False,True,True,True
164651,GLWD00164651,Portmore-Lough,54.5625,-6.2792,False,False,False,True,True
208447,GLWD00208447,Matita,45.3014,29.3708,False,False,True,True,True
208662,GLWD00208662,Fortuna,45.2153,29.1264,False,False,True,True,True
208840,GLWD00208840,Mantuas,45.1625,10.7792,False,False,False,True,True
208962,GLWD00208962,Isac,45.1097,29.2819,False,False,True,True,True
209099,GLWD00209099,Puiu,45.0569,29.4792,False,False,True,True,True
211002,GLWD00211002,Auburn,44.1458,-70.2486,False,False,True,True,True
214687,GLWD00214687,Branched-Oak,40.9708,-96.8625,False,False,True,True,True
215215,GLWD00215215,Morse,40.0792,-86.0458,False,False,False,True,True
215311,GLWD00215311,Geist,39.9375,-85.9375,False,False,False,True,True
215339,GLWD00215339,Eagle-Creek,39.8542,-86.3042,False,False,False,True,True
100000001,GLBL00000001,Curonian,55.0347,20.9792,False,False,True,True,True
100000002,GLBL00000002,Kati-Thanda-Lake-Eyre,-28.3875,137.188,False,False,True,True,True
100000003,GLBL00000003,Theewaterskloof-Reservoir,-34.0042,19.1542,False,False,True,True,True
100000004,GLBL00000004,Lough-Mourne,54.7625,-5.8042,False,False,False,True,True
100000011,GLBL00000011,Rukwa,-8.0014,32.1569,True,True,True,True,True
100000012,GLBL00000012,IJsselmeer,52.5431,5.2347,False,False,True,True,True
100000013,GLBL00000013,Kyoga,1.4708,32.9958,True,True,True,True,True
100000014,GLBL00000014,Playgreen-Lake,53.8042,-97.9875,False,False,True,True,True
100000015,GLBL00000015,Little-Playgreen-Lake,54.0042,-97.9042,False,False,True,True,True
100000016,GLBL00000016,Markermeer,52.5431,5.2347,False,False,True,True,True
100000033,GLBL00000033,Thompson,44.2875,-97.4708,False,False,True,True,True
200000001,CGL200000001,Guerrah-Et-Tarf,35.6792,7.1375,False,False,True,True,True
200000002,CGL200000002,Zehrez-Chergui,35.2292,3.5458,False,False,True,True,True
200000003,CGL200000003,Chott-Ech-Chergui,34.4958,0.9458,False,False,True,True,True
200000004,CGL200000004,Sebkha-D'Oran,35.5208,-0.8625,False,False,True,True,True
200000006,CGL200000006,Toshka,23.4125,30.6292,False,False,True,True,True
200000007,CGL200000007,Nwetwe-Pan,-20.7792,25.3792,False,False,True,True,True
200000008,CGL200000008,Sua-Pan,-20.6375,25.9792,False,False,True,True,True
200000010,CGL200000010,Al-Wahda,34.5958,-5.1458,False,False,True,True,True
200000011,CGL200000011,Chott-El-Hodna,35.4292,4.6458,False,False,True,True,True
200000012,CGL200000012,Etosha-Pan,-18.7625,16.3958,False,False,True,True,True
200000013,CGL200000013,Rio-Tapajaos-Rio-Arapiuns-Grande-Do-Curuai-Paranapitinga-Complex,-2.7042,-55.0875,False,False,True,True,True
200000036,CGL200000036,None,4.9514,34.7486,False,False,True,True,True
200000065,CGL200000065,Krasnyy,63.3625,44.6875,False,False,True,True,True
200000067,CGL200000067,Borgenfjord,63.8792,11.3375,False,False,True,True,True
200000071,CGL200000071,Lagao dos Patos,-30.6542,-50.9625,True,False,False,True,True
200000072,CGL200000072,Maracaibo,9.7958,-71.5958,True,False,False,True,True
300000138,HYLA00000138,Aydar,40.8542,67.0792,True,False,True,True,True
300000140,HYLA00000140,Tuz,38.6236,33.5208,False,False,True,True,True
300000177,HYLA00000177,Torrens,-30.6125,137.654,False,False,True,True,True
300000178,HYLA00000178,Gairdner,-31.6542,136.1125,False,False,True,True,True
300000182,HYLA00000182,None,77.0347,-20.3403,False,False,True,True,True
300000185,HYLA00000185,None,72.0264,-26.2931,False,False,True,True,True
300000223,HYLA00000223,Horton,67.4958,-122.3875,False,False,True,True,True
300000250,HYLA00000250,None,65.4931,-71.9569,False,False,True,True,True
300000274,HYLA00000274,Mingo,64.5708,-72.2153,False,False,True,True,True
300000308,HYLA00000308,None,63.4986,-106.8181,False,False,True,True,True
300000311,HYLA00000311,Fletcher,63.5764,-108.7458,False,False,True,True,True
300000328,HYLA00000328,None,62.8264,-104.3681,False,False,True,True,True
300000337,HYLA00000337,Mary,62.3792,-103.4958,False,False,True,True,True
300000347,HYLA00000347,None,62.2875,-102.3347,False,False,True,True,True
300000349,HYLA00000349,None,62.1847,-97.5458,False,False,True,True,True
300000369,HYLA00000369,Aishihik,61.5653,-137.3625,False,False,True,True,True
300000428,HYLA00000428,Riou,59.0931,-106.5097,False,False,True,True,True
300000430,HYLA00000430,Nonvianuk,59.0069,-155.4347,False,False,True,True,True
300000437,HYLA00000437,Tadouie,58.6597,-98.3042,False,False,True,True,True
300000465,HYLA00000465,None,56.7208,-67.9597,False,False,True,True,True
300000485,HYLA00000485,Otelnuc,56.0958,-68.2569,False,False,True,True,True
300000525,HYLA00000525,Bear,55.1292,-95.9847,False,False,True,True,True
300000540,HYLA00000540,Laforge 2,54.6208,-70.7875,False,False,True,True,True
300000541,HYLA00000541,None,54.8542,-125.0819,False,False,True,True,True
300000566,HYLA00000566,None,54.1625,-92.9875,False,False,True,True,True
300000579,HYLA00000579,None,54.0431,-125.8542,False,False,True,True,True
300000619,HYLA00000619,Quesnel,52.5375,-121.0542,False,False,True,True,True
300000636,HYLA00000636,Chilko,51.2875,-124.0625,False,False,True,True,True
300000651,HYLA00000651,Adams,51.2542,-119.4958,False,False,True,True,True
300000654,HYLA00000654,None,50.7403,-89.0958,False,False,True,True,True
300000655,HYLA00000655,None,50.9542,-66.9208,False,False,True,True,True
300000659,HYLA00000659,Savant,50.4736,-90.4319,False,False,True,True,True
300000704,HYLA00000704,None,48.9014,-54.9236,False,False,True,True,True
300000709,HYLA00000709,None,48.7125,-89.5681,False,False,True,True,True
300000716,HYLA00000716,Preissac,48.2931,-78.3986,False,False,True,True,True
300000725,HYLA00000725,Banks,47.8847,-119.1569,False,False,True,True,True
300000727,HYLA00000727,Chelan,47.8653,-120.1292,False,False,True,True,True
300000767,HYLA00000767,George,43.5431,-73.6347,True,False,True,True,True
300000771,HYLA00000771,Harney,43.2431,-119.1292,False,False,True,True,True
300000772,HYLA00000772,Cayuga,42.7458,-76.7347,True,False,True,True,True
300000773,HYLA00000773,Seneca,42.7125,-76.9347,False,False,True,True,True
300000836,HYLA00000836,Richland-Chambers,31.9625,-96.1292,False,False,True,True,True
300000850,HYLA00000850,None,29.3125,-107.8375,False,False,True,True,True
300000853,HYLA00000853,None,28.5458,-106.7458,False,False,True,True,True
300000910,HYLA00000910,None,-5.0625,-62.4792,False,False,True,True,True
300000918,HYLA00000918,None,-12.9208,-65.5208,False,False,True,True,True
300000946,HYLA00000946,Promissao,-21.3347,-49.7042,False,False,True,True,True
300000962,HYLA00000962,Itapeva,-29.5708,-49.9875,False,False,True,True,True
300000972,HYLA00000972,None,-35.9792,-62.4458,True,False,True,True,True
300000977,HYLA00000977,None,-38.1708,-67.2125,False,False,True,True,True
300000984,HYLA00000984,Huechulafquen,-39.7736,-71.3125,False,False,True,True,True
300000985,HYLA00000985,Ranguipulli,-39.6708,-72.2458,False,False,True,True,True
300000991,HYLA00000991,Todos los Santos,-41.1014,-72.3292,True,False,True,True,True
300000993,HYLA00000993,Yelcho,-43.3514,-72.2292,False,False,True,True,True
300001007,HYLA00001007,Kungasalakh,74.5958,107.1736,False,False,True,True,True
300001009,HYLA00001009,Kokora,73.0069,101.0653,False,False,True,True,True
300001016,HYLA00001016,Yambuto,71.2097,79.4625,False,False,True,True,True
300001024,HYLA00001024,Yambuto,69.5153,69.0125,False,False,True,True,True
300001028,HYLA00001028,Glubokoye,69.3264,89.7375,False,False,True,True,True
300001031,HYLA00001031,Sobach'ye,69.0208,91.0042,False,False,True,True,True
300001038,HYLA00001038,Altevatn,68.4653,19.7736,False,False,True,True,True
300001041,HYLA00001041,Yessey,68.4542,102.3931,False,False,True,True,True
300001048,HYLA00001048,Pervoye,67.9486,71.6486,False,False,True,True,True
300001053,HYLA00001053,Eloygytgyn,67.4903,172.0903,False,False,True,True,True
300001055,HYLA00001055,Agata,67.2125,92.8375,False,False,True,True,True
300001059,HYLA00001059,None,66.8403,85.2153,False,False,True,True,True
300001063,HYLA00001063,Temchi,66.7153,95.1014,False,False,True,True,True
300001083,HYLA00001083,None,64.9958,65.9125,False,False,True,True,True
300001087,HYLA00001087,None,64.7208,65.9375,False,False,True,True,True
300001091,HYLA00001091,None,64.4431,66.1597,False,False,True,True,True
300001094,HYLA00001094,Snasvatnet,64.1986,12.1069,False,False,True,True,True
300001098,HYLA00001098,Torrojen,63.8708,12.9931,False,False,True,True,True
300001112,HYLA00001112,Koitere,63.0319,30.7292,False,False,True,True,True
300001115,HYLA00001115,None,62.6458,65.1653,False,False,True,True,True
300001118,HYLA00001118,Palyeozero,62.5958,33.7875,False,False,True,True,True
300001123,HYLA00001123,None,62.0292,150.0542,False,False,True,True,True
300001127,HYLA00001127,Femunden,62.1069,11.7625,False,False,True,True,True
300001134,HYLA00001134,None,61.5625,67.1819,False,False,True,True,True
300001141,HYLA00001141,None,61.2875,24.1375,False,False,True,True,True
300001142,HYLA00001142,Tormemtor,61.2153,79.3181,False,False,True,True,True
300001153,HYLA00001153,Randsfjorden,60.4681,10.4236,False,False,True,True,True
300001174,HYLA00001174,None,56.0375,8.2125,False,False,True,True,True
300001205,HYLA00001205,Teletskoye,51.3792,87.7792,True,False,True,True,True
300001248,HYLA00001248,Luzern,47.0208,8.3764,True,False,True,True,True
300001252,HYLA00001252,None,46.7042,124.3792,False,False,True,True,True
300001256,HYLA00001256,Khadzhideyskiy,46.6542,30.5431,False,False,True,True,True
300001257,HYLA00001257,Huoshaohei-Talahong,46.5958,124.1875,False,False,True,True,True
300001274,HYLA00001274,Como,46.0069,9.2597,False,False,True,True,True
300001297,HYLA00001297,None,43.4903,127.1736,True,False,True,True,True
300001316,HYLA00001316,None,40.6208,64.5208,False,False,True,True,True
300001323,HYLA00001323,None,40.0375,117.5458,False,False,True,True,True
300001382,HYLA00001382,Bangdag,34.9542,81.5292,False,False,True,True,True
300001398,HYLA00001398,Tarbela,34.1375,72.7986,False,False,True,True,True
300001459,HYLA00001459,None,30.1514,84.8292,False,False,True,True,True
300001496,HYLA00001496,None,22.9125,79.9375,False,False,True,True,True
300001497,HYLA00001497,Bango,22.6208,82.6708,False,False,True,True,True
300001503,HYLA00001503,None,21.3292,85.0042,False,False,True,True,True
300001508,HYLA00001508,None,19.2542,82.8458,False,False,True,True,True
300001509,HYLA00001509,None,18.9375,78.2958,False,False,True,True,True
300001518,HYLA00001518,None,16.7847,103.5986,False,False,True,True,True
300001530,HYLA00001530,Pasak Chonlasit,15.0042,101.0458,False,False,True,True,True
300001537,HYLA00001537,None,13.5375,5.9292,False,False,True,True,True
300001545,HYLA00001545,None,11.5375,-0.6958,False,False,True,True,True
300001549,HYLA00001549,None,11.2125,107.1708,False,False,True,True,True
300001551,HYLA00001551,Maga,10.8042,14.9542,False,False,True,True,True
300001589,HYLA00001589,Danau Singkarak,-0.5903,100.5292,True,False,True,True,True
300001600,HYLA00001600,Danau Matano,-2.4847,121.3569,False,False,True,True,True
300001609,HYLA00001609,Danau Ranau,-4.8486,103.9347,False,False,True,True,True
300001611,HYLA00001611,Sulunga,-6.1125,35.1875,False,False,True,True,True
300001612,HYLA00001612,None,-7.0375,35.8375,False,False,True,True,True
300001619,HYLA00001619,None,-8.9625,13.9458,False,False,True,True,True
300001625,HYLA00001625,None,-11.7847,160.4958,False,False,True,True,True
300001639,HYLA00001639,None,-20.2208,127.4458,False,False,True,True,True
300001642,HYLA00001642,None,-21.3708,124.6708,False,False,True,True,True
300001643,HYLA00001643,None,-21.6042,145.8792,False,False,True,True,True
300001645,HYLA00001645,None,-22.0458,122.9375,False,False,True,True,True
300001646,HYLA00001646,None,-22.4792,123.8042,False,False,True,True,True
300001648,HYLA00001648,Disappointment,-23.4125,122.7042,False,False,True,True,True
300001655,HYLA00001655,Carnegie,-26.1375,122.2292,False,False,True,True,True
300001656,HYLA00001656,None,-26.6958,123.2208,False,False,True,True,True
300001664,HYLA00001664,None,-28.3542,138.0958,False,False,True,True,True
300001665,HYLA00001665,None,-28.7208,124.4042,False,False,True,True,True
300001666,HYLA00001666,None,-28.7958,120.8625,False,False,True,True,True
300001669,HYLA00001669,None,-29.2375,139.6542,False,False,True,True,True
300001672,HYLA00001672,None,-29.4375,121.9625,False,False,True,True,True
300001674,HYLA00001674,None,-29.7208,115.8125,False,False,True,True,True
300001676,HYLA00001676,None,-29.8375,122.1292,False,False,True,True,True
300001681,HYLA00001681,Lefroy,-31.2292,121.7458,False,False,True,True,True
300001694,HYLA00001694,Hume,-36.1792,147.0625,False,False,True,True,True
300001695,HYLA00001695,Eucumbene,-36.0958,148.7264,False,False,True,True,True
300001701,HYLA00001701,Pedder,-42.9236,146.2625,False,False,True,True,True
300001704,HYLA00001704,Hawea,-44.5486,169.2764,False,False,True,True,True
300001720,HYLA00001720,None,81.7681,-47.5375,False,False,True,True,True
300001737,HYLA00001737,None,80.9458,-75.9875,False,False,True,True,True
300001744,HYLA00001744,None,79.5931,-22.5403,False,False,True,True,True
300001784,HYLA00001784,None,73.0458,-118.2792,False,False,True,True,True
300001879,HYLA00001879,None,71.5625,-108.7181,False,False,True,True,True
300001887,HYLA00001887,None,71.4819,-113.9486,False,False,True,True,True
300001905,HYLA00001905,None,71.2042,-116.6042,False,False,True,True,True
300001914,HYLA00001914,None,71.0958,-79.8958,False,False,True,True,True
300001940,HYLA00001940,None,71.0542,-156.4875,False,False,True,True,True
300001994,HYLA00001994,None,70.7764,-117.4181,False,False,True,True,True
300002057,HYLA00002057,None,70.1986,-105.4292,False,False,True,True,True
300002066,HYLA00002066,None,70.1208,-109.6708,False,False,True,True,True
300002119,HYLA00002119,None,69.7903,-94.1208,False,False,True,True,True
300002123,HYLA00002123,None,69.7792,-105.1792,False,False,True,True,True
300002129,HYLA00002129,None,69.7181,-103.8736,False,False,True,True,True
300002163,HYLA00002163,None,69.6014,-93.4208,False,False,True,True,True
300002166,HYLA00002166,None,69.5875,-110.1653,False,False,True,True,True
300002202,HYLA00002202,None,69.3875,-124.6542,False,False,True,True,True
300002212,HYLA00002212,None,69.2625,-93.4042,False,False,True,True,True
300002317,HYLA00002317,None,68.6875,-125.5708,False,False,True,True,True
300002332,HYLA00002332,None,68.6958,-111.4208,False,False,True,True,True
300002480,HYLA00002480,None,67.8458,-131.4292,False,False,True,True,True
300002493,HYLA00002493,None,67.7792,-53.1792,False,False,True,True,True
300002545,HYLA00002545,None,67.6069,-52.4292,False,False,True,True,True
300002559,HYLA00002559,None,67.3958,-102.7097,False,False,True,True,True
300002685,HYLA00002685,None,66.9986,-51.8875,False,False,True,True,True
